[{"date":"22\/04\/2024","time":"9:00 A.M","code":"ACCT6010","title":"Accounting for Managerial\r\nDecision Making","hours":"3 hours","location":"-","room":"-"},{"date":"22\/04\/2024","time":"9:00 A.M","code":"ACCT6026","title":"Financial Reporting and\r\nStatement Analysis","hours":"3hours","location":"-","room":"-"},{"date":"22\/04\/2024","time":"9:00 A.M","code":"APSY6020","title":"Advanced Psychopathology","hours":"3 hours","location":"-","room":"-"},{"date":"22\/04\/2024","time":"9:00 A.M","code":"COMP6370","title":"Enterprise Information Systems","hours":"2 hours","location":"-","room":"-"},{"date":"22\/04\/2024","time":"9:00 A.M","code":"EDLE6003","title":"The Legal, Financial and\r\nIndustrial Relations Environment\r\nof Educational Leadership","hours":"3 hours","location":"-","room":"-"},{"date":"22\/04\/2024","time":"9:00 A.M","code":"GEMA6104","title":"Accounting for Decision Making","hours":"3 hours","location":"-","room":"-"},{"date":"22\/04\/2024","time":"9:00 A.M","code":"LAW6200","title":"The Management of Intellectual\r\nProperty Assets","hours":"3 hours","location":"-","room":"-"},{"date":"22\/04\/2024","time":"9:00 A.M","code":"PTMT6009","title":"Social and Environment Impact\r\nAssessment","hours":"3 hours","location":"-","room":"-"},{"date":"22\/04\/2024","time":"9:00 A.M","code":"SBCO6211","title":"Finance and Management\r\nAccounting","hours":"3 hours","location":"-","room":"-"},{"date":"22\/04\/2024","time":"9:00 A.M","code":"ACCT1002","title":"Introduction to Financial\r\nAccounting","hours":"2 hours","location":"-","room":"-"},{"date":"22\/04\/2024","time":"9:00 A.M","code":"ACCT2015","title":"Financial Accounting II","hours":"2 hours","location":"-","room":"-"},{"date":"22\/04\/2024","time":"9:00 A.M","code":"MDSC2205","title":"The Reproductive System","hours":"2 hours","location":"-","room":"-"},{"date":"22\/04\/2024","time":"9:00 A.M.","code":"SWEN1001","title":"An Introduction to Object Oriented\r\nProgramming","hours":"2 hours","location":"-","room":"-"},{"date":"22\/04\/2024","time":"9:00 A.M","code":"THEO3325","title":"Systematic Theology III","hours":"2 hours","location":"-","room":"-"},{"date":"22\/04\/2024","time":"1:00 P.M.","code":"CHIN1001","title":"Chinese Language IA","hours":"2 hours","location":"-","room":"-"},{"date":"22\/04\/2024","time":"1:00 P.M.","code":"CLTR1100","title":"Culture & Identity","hours":"2 hours","location":"-","room":"-"},{"date":"22\/04\/2024","time":"1:00 P.M.","code":"ELET1200","title":"Basic Circuit Analysis","hours":"2 hours","location":"-","room":"-"},{"date":"22\/04\/2024","time":"1:00 P.M.","code":"HESC3010","title":"Technology Applications in\r\nHealthcare","hours":"2 hours","location":"-","room":"-"},{"date":"22\/04\/2024","time":"1:00 P.M.","code":"HIST1602","title":"The Atlantic World 1600 - 1800","hours":"2 hours","location":"-","room":"-"},{"date":"22\/04\/2024","time":"1:00 P.M.","code":"HIST2302","title":"History of Africa, A.D. 1900","hours":"2 hours","location":"-","room":"-"},{"date":"22\/04\/2024","time":"1:00 P.M.","code":"HNDT3003","title":"Medical Nutrition Therapy II","hours":"2 hours","location":"-","room":"-"},{"date":"22\/04\/2024","time":"1:00 P.M.","code":"LAW1020","title":"Constitutional Law","hours":"2 hours","location":"-","room":"-"},{"date":"22\/04\/2024","time":"1:00 P.M.","code":"MDSC1104","title":"Introduction to Molecular Medicine","hours":"2 hours","location":"-","room":"-"},{"date":"22\/04\/2024","time":"1:00 P.M.","code":"MGMT3058","title":"New Venture Management","hours":"2 hours","location":"-","room":"-"},{"date":"22\/04\/2024","time":"1:00 P.M.","code":"MUSC1010","title":"Introduction to Critical Listening","hours":"2 hours","location":"-","room":"-"},{"date":"22\/04\/2024","time":"1:00 P.M.","code":"PHIL3120","title":"Biomedical Ethics","hours":"2 hours","location":"-","room":"-"},{"date":"22\/04\/2024","time":"4:00 P.M.","code":"EDMA2111","title":"Structure and Nature of Maths","hours":"2 hours","location":"-","room":"-"},{"date":"22\/04\/2024","time":"4:00 P.M.","code":"GOVT3015","title":"International Politics and Political\r\nEconomy","hours":"2 hours","location":"-","room":"-"},{"date":"22\/04\/2024","time":"4:00 P.M.","code":"LING2501","title":"Language, Gender and Sex","hours":"2 hours","location":"-","room":"-"},{"date":"22\/04\/2024","time":"4:00 P.M.","code":"MATH2321","title":"Real Analysis 1","hours":"2 hours","location":"-","room":"-"},{"date":"22\/04\/2024","time":"4:00 P.M.","code":"METE2210","title":"Synoptic Meteorology","hours":"2 hours","location":"-","room":"-"},{"date":"22\/04\/2024","time":"4:00 P.M.","code":"MGMT2013","title":"Introduction to International\r\nBusiness","hours":"2 hours","location":"-","room":"-"},{"date":"22\/04\/2024","time":"4:00 P.M.","code":"PHIL3500","title":"Philosophy and Gender","hours":"2 hours","location":"-","room":"-"},{"date":"23\/04\/2024","time":"9:00 A.M","code":"EDSC6010","title":"Issues in Science and Technology\r\nEducation","hours":"3 hours","location":"-","room":"-"},{"date":"23\/04\/2024","time":"9:00 A.M","code":"LAW6204","title":"International Intellectual\r\nProperty","hours":"3 hours","location":"-","room":"-"},{"date":"23\/04\/2024","time":"9:00 A.M.","code":"MKTG6010","title":"Consumer Behaviour","hours":"3 hours","location":"-","room":"-"},{"date":"23\/04\/2024","time":"9:00 A.M","code":"BIOC2371","title":"Molecular Techniques","hours":"2 hours","location":"-","room":"-"},{"date":"23\/04\/2024","time":"9:00 A.M","code":"COMP2220","title":"Computer System Architecture","hours":"2 hours","location":"-","room":"-"},{"date":"23\/04\/2024","time":"9:00 A.M","code":"ECON3008","title":"History of Economic Thought","hours":"2 hours","location":"-","room":"-"},{"date":"23\/04\/2024","time":"9:00 A.M","code":"EDFA1024","title":"The Social Foundations of\r\nEducation","hours":"2 hours","location":"-","room":"-"},{"date":"23\/04\/2024","time":"9:00 A.M","code":"ENSC3001","title":"Natural Hazards and Disasters","hours":"2 hours","location":"-","room":"-"},{"date":"23\/04\/2024","time":"9:00 A.M","code":"INRL1000","title":"Introduction to International\r\nRelations","hours":"2 hours","location":"-","room":"-"},{"date":"23\/04\/2024","time":"9:00 A.M","code":"LAW3220","title":"Family Law II - Law Relating to\r\nChildren","hours":"2 hours","location":"-","room":"-"},{"date":"23\/04\/2024","time":"9:00 A.M","code":"LING1002","title":"Introduction to Morphology and\r\nSyntax","hours":"2 hours","location":"-","room":"-"},{"date":"23\/04\/2024","time":"9:00 A.M","code":"SWEN2002","title":"An Introduction to the Analysis of\r\nAlgorithms","hours":"2 hours","location":"-","room":"-"},{"date":"23\/04\/2024","time":"9:00 A.M","code":"THEO3213","title":"Other Sacramental Rights","hours":"2 hours","location":"-","room":"-"},{"date":"23\/04\/2024","time":"1:00 P.M.","code":"BIOL1030","title":"Introduction to Genetics","hours":"2 hours","location":"-","room":"-"},{"date":"23\/04\/2024","time":"1:00 P.M.","code":"CLTR3102","title":"Exhibiting Cultures","hours":"2hours","location":"-","room":"-"},{"date":"23\/04\/2024","time":"1:00 P.M.","code":"MUSC1020","title":"Caribbean Popular Music and\r\nSociety","hours":"2 hours","location":"-","room":"-"},{"date":"23\/04\/2024","time":"1:00 P.M.","code":"PHYS1220","title":"Physics IV: Magnetism,\r\nElectromagnetic Waves & Optics","hours":"2 hours","location":"-","room":"-"},{"date":"23\/04\/2024","time":"4:00 P.M.","code":"ECON2003","title":"Intermediate Macro-Economics II","hours":"2 hours","location":"-","room":"-"},{"date":"23\/04\/2024","time":"4:00 P.M.","code":"GEND2005","title":"Crimes by and Against Women","hours":"2 hours","location":"-","room":"-"},{"date":"23\/04\/2024","time":"4:00 P.M.","code":"HESC2000","title":"Structure and Function II - Organ\r\nSystems","hours":"2 hours","location":"-","room":"-"},{"date":"23\/04\/2024","time":"4:00 P.M.","code":"METE1135","title":"Introduction to Dynamic\r\nMeteorology","hours":"2 hours","location":"-","room":"-"},{"date":"23\/04\/2024","time":"4:00 P.M.","code":"MGMT3096","title":"Taxation and Tax Management","hours":"2 hours","location":"-","room":"-"},{"date":"23\/04\/2024","time":"4:00 P.M.","code":"PHIL2210","title":"Human Nature and the Good Life\r\nin Society","hours":"2 hours","location":"-","room":"-"},{"date":"23\/04\/2024","time":"4:00 P.M.","code":"SOCI1005","title":"Introductory Statistics for the\r\nBehavioural Sciences","hours":"2 hours","location":"-","room":"-"},{"date":"24\/04\/2024","time":"9:00 A.M","code":"EDPS6302","title":"Social Psychology of Education","hours":"3 hours","location":"-","room":"-"},{"date":"24\/04\/2024","time":"9:00 A.M","code":"LAER6001","title":"Employment Relations in a\r\nGlobal Environment","hours":"3 hours","location":"-","room":"-"},{"date":"24\/04\/2024","time":"9:00 A.M","code":"MGMT6901","title":"Research Methods for Business and\r\nSocial Sciences","hours":"3 hours","location":"-","room":"-"},{"date":"24\/04\/2024","time":"9:00 A.M","code":"ACCT1003","title":"Introduction to Cost and\r\nManagement Accounting","hours":"2 hours","location":"-","room":"-"},{"date":"24\/04\/2024","time":"9:00 A.M","code":"BIOL2371","title":"Ecophysiology of Animals","hours":"2 hours","location":"-","room":"-"},{"date":"24\/04\/2024","time":"9:00 A.M","code":"EDPS1005","title":"Introduction to Educational\r\nPsychology","hours":"2 hours","location":"-","room":"-"},{"date":"24\/04\/2024","time":"9:00 A.M","code":"MATH1152","title":"Sets and Number Systems","hours":"2 hours","location":"-","room":"-"},{"date":"24\/04\/2024","time":"9:00 A.M","code":"MDSC1205","title":"The Respiratory System","hours":"2 hours","location":"-","room":"-"},{"date":"24\/04\/2024","time":"9:00 A.M","code":"SPSC3008","title":"Strategic Management in Sport\r\nOrganisation","hours":"2 hours","location":"-","room":"-"},{"date":"24\/04\/2024","time":"9:00 A.M","code":"SWEN1003","title":"Current and Future Trends in\r\nComputing for Software Engineers","hours":"2 hours","location":"-","room":"-"},{"date":"24\/04\/2024","time":"1:00 P.M.","code":"EDSE3100","title":"Working with Exceptional Learners","hours":"2 hours","location":"-","room":"-"},{"date":"24\/04\/2024","time":"1:00 P.M.","code":"FREN3003","title":"Introduction to Business French","hours":"2 hours","location":"-","room":"-"},{"date":"24\/04\/2024","time":"1:00 P.M.","code":"LAW1120","title":"Criminal Law II","hours":"2 hours","location":"-","room":"-"},{"date":"24\/04\/2024","time":"1:00 P.M.","code":"LITS2118","title":"African American Prose Fiction","hours":"2 hours","location":"-","room":"-"},{"date":"24\/04\/2024","time":"1:00 P.M.","code":"MATH3560","title":"Metric Spaces","hours":"2 hours","location":"-","room":"-"},{"date":"24\/04\/2024","time":"1:00 P.M.","code":"MKTG3001","title":"International Marketing\r\nManagement","hours":"2 hours","location":"-","room":"-"},{"date":"24\/04\/2024","time":"1:00 P.M.","code":"PHYS3465","title":"Electromagnetic Theory II","hours":"2 hours","location":"-","room":"-"},{"date":"24\/04\/2024","time":"1:00 P.M.","code":"SPSC3010","title":"Exercise Physiology as a Training\r\nTool","hours":"2 hours","location":"-","room":"-"},{"date":"24\/04\/2024","time":"4:00 P.M.","code":"EDTK3304","title":"Media and Technology in\r\nEducation","hours":"2 hours","location":"-","room":"-"},{"date":"24\/04\/2024","time":"4:00 P.M.","code":"MKTG2001","title":"Principles of Marketing","hours":"2 hours","location":"-","room":"-"},{"date":"24\/04\/2024","time":"4:00 P.M.","code":"PHIL2901","title":"Problems of Knowledge","hours":"2 hours","location":"-","room":"-"},{"date":"24\/04\/2024","time":"4:00 P.M.","code":"PSYC3003","title":"Community and Environmental\r\nPsychology","hours":"2 hours","location":"-","room":"-"},{"date":"24\/04\/2024","time":"4:00 P.M.","code":"PSYC3018","title":"Forensic Psychology","hours":"2 hours","location":"-","room":"-"},{"date":"24\/04\/2024","time":"4:00 P.M.","code":"SOCI2013","title":"Caribbean Social Development","hours":"2 hours","location":"-","room":"-"},{"date":"25\/04\/2024","time":"9:00 A.M","code":"ACCT6016","title":"Alternative Investments","hours":"3 hours","location":"-","room":"-"},{"date":"25\/04\/2024","time":"9:00 A.M","code":"EDLE6002","title":"Human Relations Management in\r\nEducation","hours":"3 hours","location":"-","room":"-"},{"date":"25\/04\/2024","time":"9:00 A.M","code":"LAW6202","title":"Trade Mark Law (The Protection\r\nof Marketing Assets)","hours":"3 hours","location":"-","room":"-"},{"date":"25\/04\/2024","time":"9:00 A.M","code":"BIOC3261","title":"Mitochondrial Bioenergetics","hours":"2 hours","location":"-","room":"-"},{"date":"25\/04\/2024","time":"9:00 A.M","code":"COMP1205","title":"Computing I","hours":"2 hours","location":"-","room":"-"},{"date":"25\/04\/2024","time":"9:00 A.M","code":"COMP2611","title":"Data Structures","hours":"2 hours","location":"-","room":"-"},{"date":"25\/04\/2024","time":"9:00 A.M","code":"ECON1001","title":"Introduction to Microeconomics","hours":"2 hours","location":"-","room":"-"},{"date":"25\/04\/2024","time":"9:00 A.M","code":"EDRS2202","title":"Basic Data Analysis with the\r\nComputer","hours":"2 hours","location":"-","room":"-"},{"date":"25\/04\/2024","time":"9:00 A.M","code":"HESC1000","title":"Structure and Function I - (Cells\r\nand Tissues)","hours":"2 hours","location":"-","room":"-"},{"date":"25\/04\/2024","time":"9:00 A.M","code":"PHYS2425","title":"Computational Methods in Physics","hours":"2 hours","location":"-","room":"-"},{"date":"25\/04\/2024","time":"9:00 A.M","code":"PSYC3013","title":"Issues in Social Psychology","hours":"2 hours","location":"-","room":"-"},{"date":"25\/04\/2024","time":"1:00 P.M.","code":"ACCT3044","title":"Auditing II","hours":"2 hours","location":"-","room":"-"},{"date":"25\/04\/2024","time":"1:00 P.M.","code":"LAW2320","title":"Public International Law II","hours":"2 hours","location":"-","room":"-"},{"date":"25\/04\/2024","time":"1:00 P.M.","code":"LAW3775","title":"Introduction to Chinese Law and\r\nInstitutions","hours":"2 hours","location":"-","room":"-"},{"date":"25\/04\/2024","time":"1:00 P.M.","code":"MGMT2010","title":"Introduction to Sports\r\nManagement","hours":"2 hours","location":"-","room":"-"},{"date":"25\/04\/2024","time":"1:00 P.M.","code":"SWEN1007","title":"Software Engineering Essentials","hours":"2 hours","location":"-","room":"-"},{"date":"25\/04\/2024","time":"1:00 P.M.","code":"THEO3402","title":"Popular Religiosity","hours":"2hours","location":"-","room":"-"},{"date":"25\/04\/2024","time":"4:00 P.M.","code":"ECON3070","title":"Economics of Technological\r\nChange","hours":"2 hours","location":"-","room":"-"},{"date":"25\/04\/2024","time":"4:00 P.M.","code":"ELET3260","title":"Advanced Microprocessors &\r\nSystems","hours":"2 hours","location":"-","room":"-"},{"date":"25\/04\/2024","time":"4:00 P.M.","code":"GOVT3018","title":"Caribbean Government and Politics\r\nI","hours":"2 hours","location":"-","room":"-"},{"date":"25\/04\/2024","time":"4:00 P.M.","code":"MGMT1001","title":"Introduction to Management","hours":"2 hours","location":"-","room":"-"},{"date":"25\/04\/2024","time":"4:00 P.M.","code":"MGMT3062","title":"Compensation Management","hours":"2 hours","location":"-","room":"-"},{"date":"25\/04\/2024","time":"4:00 P.M.","code":"MKTG3009","title":"Services Marketing","hours":"2 hours","location":"-","room":"-"},{"date":"25\/04\/2024","time":"4:00 P.M.","code":"PHIL1903","title":"Greek Philosophy","hours":"2 hours","location":"-","room":"-"},{"date":"25\/04\/2024","time":"4:00 P.M.","code":"SOWK1002","title":"Individuals and Families","hours":"2 hours","location":"-","room":"-"},{"date":"26\/04\/2024","time":"9:00 A.M","code":"EDSC6205","title":"Measurement and Assessment in\r\nScience Education","hours":"3 hours","location":"-","room":"-"},{"date":"26\/04\/2024","time":"9:00 A.M","code":"NURS6803","title":"Testing and Measurement in\r\nNursing","hours":"3 hours","location":"-","room":"-"},{"date":"26\/04\/2024","time":"9:00 A.M","code":"BIOC1015","title":"Introduction to Biochemistry","hours":"2 hours","location":"-","room":"-"},{"date":"26\/04\/2024","time":"9:00 A.M","code":"CLTR2100","title":"Festivals, Rituals and Caribbean\r\nSociety","hours":"2 hours","location":"-","room":"-"},{"date":"26\/04\/2024","time":"9:00 A.M","code":"ECON0101","title":"Preliminary Mathematics for Social\r\nSciences","hours":"2 hours","location":"-","room":"-"},{"date":"26\/04\/2024","time":"9:00 A.M","code":"ECON1005","title":"Introduction to Statistics","hours":"2 hours","location":"-","room":"-"},{"date":"26\/04\/2024","time":"9:00 A.M","code":"HIST2004","title":"History of the West Indies 2","hours":"2 hours","location":"-","room":"-"},{"date":"26\/04\/2024","time":"9:00 A.M","code":"MDSC2202","title":"Introduction to Medical Practice 2","hours":"2 hours","location":"-","room":"-"},{"date":"26\/04\/2024","time":"9:00 A.M","code":"MGMT2023","title":"Financial Management I","hours":"2 hours","location":"-","room":"-"},{"date":"26\/04\/2024","time":"1:00 P.M.","code":"LAW1410","title":"Law of Contract I","hours":"2 hours","location":"-","room":"-"},{"date":"26\/04\/2024","time":"1:00 P.M.","code":"LAW3360","title":"Caribbean Energy and Gas Law","hours":"2 hours","location":"-","room":"-"},{"date":"26\/04\/2024","time":"1:00 P.M.","code":"LING3102","title":"Teaching English as a Second\r\nLanguage","hours":"2 hours","location":"-","room":"-"},{"date":"26\/04\/2024","time":"1:00 P.M.","code":"LITS2002","title":"Poetry II: Romantics and Victorians","hours":"2 hours","location":"-","room":"-"},{"date":"26\/04\/2024","time":"4:00 P.M.","code":"ACCT2018","title":"Government Accounting","hours":"2 hours","location":"-","room":"-"},{"date":"26\/04\/2024","time":"4:00 P.M.","code":"CHEM3800","title":"Nanostructures and\r\nSupramolecular Chemistry","hours":"2 hours","location":"-","room":"-"},{"date":"26\/04\/2024","time":"4:00 P.M.","code":"COMP3412","title":"Scalable Enterprise Web\r\nApplication","hours":"2 hours","location":"-","room":"-"},{"date":"26\/04\/2024","time":"4:00 P.M.","code":"ELET3235","title":"Digital Communication Systems II","hours":"2 hours","location":"-","room":"-"},{"date":"26\/04\/2024","time":"4:00 P.M.","code":"GEND2015","title":"Gender, Sexuality and Race in\r\nCaribbean","hours":"2 hours","location":"-","room":"-"},{"date":"26\/04\/2024","time":"4:00 P.M.","code":"HESC1005","title":"Health Care Systems","hours":"2 hours","location":"-","room":"-"},{"date":"26\/04\/2024","time":"4:00 P.M.","code":"HIST3203","title":"The Black Experience in the U.S.A.","hours":"2 hours","location":"-","room":"-"},{"date":"26\/04\/2024","time":"4:00 P.M.","code":"HNDT1004","title":"Fundamentals of Food Preparation\r\nand Food Safety","hours":"2 hours","location":"-","room":"-"},{"date":"26\/04\/2024","time":"4:00 P.M.","code":"METE3425","title":"Satellite Meteorology","hours":"2 hours","location":"-","room":"-"},{"date":"26\/04\/2024","time":"4:00 P.M.","code":"MGMT3053","title":"International Financial\r\nManagement","hours":"2 hours","location":"-","room":"-"},{"date":"26\/04\/2024","time":"4:00 P.M.","code":"MGMT3089","title":"Social Entrepreneurship for\r\nSustainable Development","hours":"2 hours","location":"-","room":"-"},{"date":"26\/04\/2024","time":"4:00 P.M.","code":"PHYS2405","title":"Mathematical Methods in Physics II","hours":"2 hours","location":"-","room":"-"},{"date":"26\/04\/2024","time":"4:00 P.M.","code":"PSYC2002","title":"Abnormal Psychology","hours":"2 hours","location":"-","room":"-"},{"date":"26\/04\/2024","time":"4:00 P.M.","code":"SPSC3013","title":"Sports Coaching Methodologies","hours":"2 hours","location":"-","room":"-"},{"date":"26\/04\/2024","time":"4:00 P.M.","code":"TOUR3002","title":"Tourism Marketing","hours":"2 hours","location":"-","room":"-"},{"date":"29\/04\/2024","time":"9:00 A.M","code":"BIOL0052","title":"Biology II","hours":"3 hours","location":"-","room":"-"},{"date":"29\/04\/2024","time":"9:00 A.M","code":"EDME6203","title":"Applied Psychometric Methods","hours":"3 hours","location":"-","room":"-"},{"date":"29\/04\/2024","time":"9:00 A.M","code":"EGOV6060","title":"Analysis and Management of e-Governance Systems","hours":"3 hours","location":"-","room":"-"},{"date":"29\/04\/2024","time":"9:00 A.M","code":"HRNM6108","title":"Contemporary Industrial\r\nRelations Practices","hours":"3 hours","location":"-","room":"-"},{"date":"29\/04\/2024","time":"9:00 A.M","code":"LAW6201","title":"Copyright Law (The Protection of\r\nCreative Assets)","hours":"3 hours","location":"-","room":"-"},{"date":"29\/04\/2024","time":"9:00 A.M","code":"COMP1215","title":"UNIX","hours":"2 hours","location":"-","room":"-"},{"date":"29\/04\/2024","time":"9:00 A.M","code":"ECON2001","title":"Intermediate Micro-Economics II","hours":"2 hours","location":"-","room":"-"},{"date":"29\/04\/2024","time":"9:00 A.M","code":"ECON3057","title":"Health Economics: Theory and\r\nPolicy","hours":"2 hours","location":"-","room":"-"},{"date":"29\/04\/2024","time":"9:00 A.M","code":"ENSC2002","title":"Earth\u2019s Climate","hours":"2 hours","location":"-","room":"-"},{"date":"29\/04\/2024","time":"9:00 A.M","code":"MDSC1202","title":"Introduction to Medical Practice 1","hours":"2 hours","location":"-","room":"-"},{"date":"29\/04\/2024","time":"9:00 A.M","code":"MGMT2020","title":"Managerial Economics","hours":"2 hours","location":"-","room":"-"},{"date":"29\/04\/2024","time":"9:00 A.M","code":"SPSC2030","title":"Ethics in Sport","hours":"2 hours","location":"-","room":"-"},{"date":"29\/04\/2024","time":"9:00 A.M","code":"SPSC3006","title":"Sport and International\r\nDevelopment","hours":"2 hours","location":"-","room":"-"},{"date":"29\/04\/2024","time":"9:00 A.M","code":"SWEN2007","title":"Object Oriented Design and\r\nImplementation","hours":"2 hours","location":"-","room":"-"},{"date":"29\/04\/2024","time":"1:00 P.M.","code":"CLTR3110","title":"Sacred Arts of the Black Atlantic","hours":"2 hours","location":"-","room":"-"},{"date":"29\/04\/2024","time":"1:00 P.M.","code":"COMP3450","title":"Fundamentals of Artificial\r\nIntelligence","hours":"2 hours","location":"-","room":"-"},{"date":"29\/04\/2024","time":"1:00 P.M.","code":"ELET2220","title":"Circuit Simulation and Applications","hours":"2 hours","location":"-","room":"-"},{"date":"29\/04\/2024","time":"1:00 P.M.","code":"HNDT1003","title":"Organic Chemistry for Nutrition","hours":"2 hours","location":"-","room":"-"},{"date":"29\/04\/2024","time":"1:00 P.M.","code":"LAW1310","title":"Law of Torts I","hours":"2 hours","location":"-","room":"-"},{"date":"29\/04\/2024","time":"1:00 P.M.","code":"MDSC2105","title":"Health and the Environment","hours":"2 hours","location":"-","room":"-"},{"date":"29\/04\/2024","time":"4:00 P.M.","code":"CHEM3635","title":"Biological Inorganic Chemistry","hours":"2 hours","location":"-","room":"-"},{"date":"29\/04\/2024","time":"4:00 P.M.","code":"GOVT3025","title":"International Environmental Politics","hours":"2 hours","location":"-","room":"-"},{"date":"29\/04\/2024","time":"4:00 P.M.","code":"LITS1003","title":"Introduction to Drama","hours":"2 hours","location":"-","room":"-"},{"date":"29\/04\/2024","time":"4:00 P.M.","code":"MGMT3018","title":"Industrial Relations","hours":"2 hours","location":"-","room":"-"},{"date":"29\/04\/2024","time":"4:00 P.M.","code":"SOCI3047","title":"The Sociology of Penal Practice","hours":"2 hours","location":"-","room":"-"},{"date":"30\/04\/2024","time":"9:00 A.M","code":"ACCT6033","title":"Advanced Taxation","hours":"3 hours","location":"-","room":"-"},{"date":"30\/04\/2024","time":"9:00 A.M","code":"EDPS6111","title":"Psychology of Caribbean\r\nChildren","hours":"3 hours","location":"-","room":"-"},{"date":"30\/04\/2024","time":"9:00 A.M","code":"GEMA0104","title":"Quantitative Methods for\r\nDecision Making","hours":"3 hours","location":"-","room":"-"},{"date":"30\/04\/2024","time":"9:00 A.M","code":"LGSC6004","title":"Logistics Information Systems","hours":"3 hours","location":"-","room":"-"},{"date":"30\/04\/2024","time":"9:00 A.M","code":"MATH0110","title":"Calculus and Analytical Geometry","hours":"3 hours","location":"-","room":"-"},{"date":"30\/04\/2024","time":"9:00 A.M","code":"NURS6702","title":"Models of Nursing\/Health Care\r\nAdministration","hours":"3 hours","location":"-","room":"-"},{"date":"30\/04\/2024","time":"9:00 A.M","code":"PBHE6420","title":"Human Resources for Health","hours":"3 hours","location":"-","room":"-"},{"date":"30\/04\/2024","time":"9:00 A.M","code":"TOUR6090","title":"Risk, Crisis and Disaster\r\nManagement","hours":"3 hours","location":"-","room":"-"},{"date":"30\/04\/2024","time":"9:00 A.M","code":"COMP3375","title":"Software Testing & Quality","hours":"2 hours","location":"-","room":"-"},{"date":"30\/04\/2024","time":"9:00 A.M","code":"ECON1003","title":"Mathematics for Social Sciences I","hours":"2 hours","location":"-","room":"-"},{"date":"30\/04\/2024","time":"9:00 A.M","code":"HESC2001","title":"Essential Pathophysiology","hours":"2 hours","location":"-","room":"-"},{"date":"30\/04\/2024","time":"9:00 A.M","code":"LING2002","title":"Syntax","hours":"2 hours","location":"-","room":"-"},{"date":"30\/04\/2024","time":"9:00 A.M","code":"MDSC2203","title":"Neuroscience II","hours":"2 hours","location":"-","room":"-"},{"date":"30\/04\/2024","time":"9:00 A.M","code":"PSYC2008","title":"Cognitive Psychology","hours":"2 hours","location":"-","room":"-"},{"date":"30\/04\/2024","time":"1:00 P.M.","code":"HESC3000","title":"Biological Principles of Prevention\r\n& Treatment","hours":"2 hours","location":"-","room":"-"},{"date":"30\/04\/2024","time":"1:00 P.M.","code":"LAW2910","title":"Commonwealth Caribbean Human\r\nRights Law","hours":"2 hours","location":"-","room":"-"},{"date":"30\/04\/2024","time":"1:00 P.M.","code":"MATH1195","title":"Calculus B","hours":"2 hours","location":"-","room":"-"},{"date":"30\/04\/2024","time":"1:00 P.M.","code":"MGMT3048","title":"Financial Management II","hours":"2 hours","location":"-","room":"-"},{"date":"30\/04\/2024","time":"1:00 P.M.","code":"SOWK4005","title":"Crisis Intervention","hours":"2 hours","location":"-","room":"-"},{"date":"30\/04\/2024","time":"4:00 P.M.","code":"GOVT3055","title":"Theory and Practice of International\r\nNegotiations and Diplomacy","hours":"2 hours","location":"-","room":"-"},{"date":"30\/04\/2024","time":"4:00 P.M.","code":"METE3505","title":"Climate, Biosphere and Ecosystems","hours":"2 hours","location":"-","room":"-"},{"date":"30\/04\/2024","time":"4:00 P.M.","code":"MGMT2008","title":"Organisational Behaviour","hours":"2 hours","location":"-","room":"-"},{"date":"30\/04\/2024","time":"4:00 P.M.","code":"MICR2261","title":"Eukaryotic Microbes","hours":"2 hours","location":"-","room":"-"},{"date":"30\/04\/2024","time":"4:00 P.M.","code":"PHIL1300","title":"Critical Thinking and Informal Logic","hours":"2 hours","location":"-","room":"-"},{"date":"30\/04\/2024","time":"4:00 P.M.","code":"PSYC1030","title":"Exploring the Social Self in The\r\nWider World","hours":"2 hours","location":"-","room":"-"},{"date":"30\/04\/2024","time":"4:00 P.M.","code":"PSYC2025","title":"Communication Psychology","hours":"2 hours","location":"-","room":"-"},{"date":"01\/05\/2024","time":"9:00 A.M","code":"EDCL6002","title":"Fundamentals of Practice in\r\nEducation","hours":"3 hours","location":"-","room":"-"},{"date":"01\/05\/2024","time":"9:00 A.M","code":"EDPS6301","title":"Personality Theory and\r\nAssessment","hours":"3 hours","location":"-","room":"-"},{"date":"01\/05\/2024","time":"9:00 A.M","code":"FINA6004","title":"Financial Econometrics","hours":"3 hours","location":"-","room":"-"},{"date":"01\/05\/2024","time":"9:00 A.M","code":"PHYS0071","title":"Preliminary Physics II","hours":"3 hours","location":"-","room":"-"},{"date":"01\/05\/2024","time":"9:00 A.M","code":"CHEM2710","title":"Intermediate Physical Chemistry","hours":"2 hours","location":"-","room":"-"},{"date":"01\/05\/2024","time":"9:00 A.M","code":"COMP2225","title":"Software Engineering","hours":"2 hours","location":"-","room":"-"},{"date":"01\/05\/2024","time":"9:00 A.M","code":"EDPH2016","title":"Philosophy of Education","hours":"2 hours","location":"-","room":"-"},{"date":"01\/05\/2024","time":"9:00 A.M","code":"LING2302","title":"Sociolinguistics","hours":"2 hours","location":"-","room":"-"},{"date":"01\/05\/2024","time":"9:00 A.M","code":"MDSC1206","title":"Neuroscience I - The Peripheral\r\nNervous System","hours":"2 hours","location":"-","room":"-"},{"date":"01\/05\/2024","time":"9:00 A.M","code":"PHYS3480","title":"Theory of Quantum Mechanics","hours":"2 hours","location":"-","room":"-"},{"date":"01\/05\/2024","time":"9:00 A.M","code":"SOCI1002","title":"Introduction to Sociology I","hours":"2 hours","location":"-","room":"-"},{"date":"01\/05\/2024","time":"9:00 A.M","code":"THEO2020","title":"Biblical Exegesis and Hermeneutics","hours":"2 hours","location":"-","room":"-"},{"date":"01\/05\/2024","time":"1:00 P.M.","code":"CLTR3100","title":"Theorising Caribbean Culture","hours":"2 hours","location":"-","room":"-"},{"date":"01\/05\/2024","time":"1:00 P.M.","code":"ELET2235","title":"Automation Technology and\r\nApplications","hours":"2 hours","location":"-","room":"-"},{"date":"01\/05\/2024","time":"1:00 P.M.","code":"GOVT2015","title":"Modern Political Thought","hours":"2 hours","location":"-","room":"-"},{"date":"01\/05\/2024","time":"1:00 P.M.","code":"HNDT1002","title":"Social and Cultural Aspects of Food","hours":"2 hours","location":"-","room":"-"},{"date":"01\/05\/2024","time":"1:00 P.M.","code":"MUSC3020","title":"Conducting to Large Ensembles","hours":"2 hours","location":"-","room":"-"},{"date":"01\/05\/2024","time":"1:00 P.M.","code":"SPCH1015","title":"Fundamentals of Sport Coaching","hours":"2 hours","location":"-","room":"-"},{"date":"01\/05\/2024","time":"4:00 P.M.","code":"ACCT3015","title":"Accounting Information Systems","hours":"2 hours","location":"-","room":"-"},{"date":"01\/05\/2024","time":"4:00 P.M.","code":"ECOL2462","title":"Marine Biota","hours":"2 hours","location":"-","room":"-"},{"date":"01\/05\/2024","time":"4:00 P.M.","code":"ECON3007","title":"International Finance","hours":"2 hours","location":"-","room":"-"},{"date":"01\/05\/2024","time":"4:00 P.M.","code":"LAW3020","title":"Employment Law","hours":"2 hours","location":"-","room":"-"},{"date":"01\/05\/2024","time":"4:00 P.M.","code":"MGMT2012","title":"Quantitative Methods","hours":"2 hours","location":"-","room":"-"},{"date":"01\/05\/2024","time":"4:00 P.M.","code":"MGMT2028","title":"Management in Government II","hours":"2 hours","location":"-","room":"-"},{"date":"02\/05\/2024","time":"9:00 A.M","code":"EDME6202","title":"Performance Assessment\r\nStrategies","hours":"3 hours","location":"-","room":"-"},{"date":"02\/05\/2024","time":"9:00 A.M","code":"FINA6130","title":"Advanced Corporate Finance","hours":"3 hours","location":"-","room":"-"},{"date":"02\/05\/2024","time":"9:00 A.M","code":"NURS6704","title":"Human Resource Management in\r\nNursing","hours":"3 hours","location":"-","room":"-"},{"date":"02\/05\/2024","time":"9:00 A.M","code":"SBFI6000","title":"Advanced Corporate Finance","hours":"3 hours","location":"-","room":"-"},{"date":"02\/05\/2024","time":"9:00 A.M","code":"COMP2410","title":"Computing in the Digital Age","hours":"2 hours","location":"-","room":"-"},{"date":"02\/05\/2024","time":"9:00 A.M","code":"LAW3120","title":"Law of Corporate Management","hours":"2 hours","location":"-","room":"-"},{"date":"02\/05\/2024","time":"9:00 A.M","code":"MGMT3076","title":"Managing Financial Institution","hours":"2 hours","location":"-","room":"-"},{"date":"02\/05\/2024","time":"9:00 A.M","code":"SOCI2001","title":"Modern Social Theory","hours":"2 hours","location":"-","room":"-"},{"date":"02\/05\/2024","time":"9:00 A.M","code":"THEO1305","title":"Systematic Theology I","hours":"2 hours","location":"-","room":"-"},{"date":"02\/05\/2024","time":"9:00 A.M","code":"THEO2316","title":"Christian Social Ethics","hours":"2 hours","location":"-","room":"-"},{"date":"02\/05\/2024","time":"1:00 P.M.","code":"CHIN1002","title":"Chinese Language IB","hours":"2 hours","location":"-","room":"-"},{"date":"02\/05\/2024","time":"1:00 P.M.","code":"ECON3011","title":"Economics of Financial Institutions","hours":"2 hours","location":"-","room":"-"},{"date":"02\/05\/2024","time":"1:00 P.M.","code":"EDSE2924","title":"Introduction to Special Education","hours":"2 hours","location":"-","room":"-"},{"date":"02\/05\/2024","time":"1:00 P.M.","code":"ELET2225","title":"Discrete Component Electronics","hours":"2 hours","location":"-","room":"-"},{"date":"02\/05\/2024","time":"1:00 P.M.","code":"TOUR2004","title":"Research Methods for Business","hours":"2 hours","location":"-","room":"-"},{"date":"02\/05\/2024","time":"4:00 P.M.","code":"ACCT3039","title":"Management Accounting II","hours":"2 hours","location":"-","room":"-"},{"date":"02\/05\/2024","time":"4:00 P.M.","code":"CHEM2725","title":"Chemistry of the Environment","hours":"2 hours","location":"-","room":"-"},{"date":"02\/05\/2024","time":"4:00 P.M.","code":"COMP1210","title":"Computing II","hours":"2 hours","location":"-","room":"-"},{"date":"02\/05\/2024","time":"4:00 P.M.","code":"GEND3705","title":"Gender and Sexuality","hours":"2 hours","location":"-","room":"-"},{"date":"02\/05\/2024","time":"4:00 P.M.","code":"GOVT2024","title":"Contemporary Western Political\r\nDemocracy","hours":"2 hours","location":"-","room":"-"},{"date":"02\/05\/2024","time":"4:00 P.M.","code":"HIST3033","title":"Gender, Race & Medicine","hours":"2 hours","location":"-","room":"-"},{"date":"02\/05\/2024","time":"4:00 P.M.","code":"MATH2310","title":"Abstract Algebra 1","hours":"2 hours","location":"-","room":"-"},{"date":"03\/05\/2024","time":"9:00 A.M","code":"ACCT6036","title":"International Investments","hours":"3 hours","location":"-","room":"-"},{"date":"03\/05\/2024","time":"9:00 A.M","code":"ECON6033","title":"Econometric Methods","hours":"3 hours","location":"-","room":"-"},{"date":"03\/05\/2024","time":"9:00 A.M","code":"EDEP6002","title":"Citizenship Education,\r\nDemocracy and Global Trends","hours":"3 hours","location":"-","room":"-"},{"date":"03\/05\/2024","time":"9:00 A.M","code":"FINA6050","title":"Treasury, Foreign Exchange and\r\nTrade Finance","hours":"3 hours","location":"-","room":"-"},{"date":"03\/05\/2024","time":"9:00 A.M","code":"LGSC6006","title":"Operations Research II","hours":"3 hours","location":"-","room":"-"},{"date":"03\/05\/2024","time":"9:00 A.M","code":"LGSC6008","title":"International Trade and\r\nExchange","hours":"3 hours","location":"-","room":"-"},{"date":"03\/05\/2024","time":"9:00 A.M","code":"PBHE6050","title":"Health Economics","hours":"3 hours","location":"-","room":"-"},{"date":"03\/05\/2024","time":"9:00 A.M","code":"SBCO6214","title":"Corporate Strategy","hours":"3 hours","location":"-","room":"-"},{"date":"03\/05\/2024","time":"9:00 A.M","code":"ACCT2014","title":"Financial Accounting I","hours":"2 hours","location":"-","room":"-"},{"date":"03\/05\/2024","time":"9:00 A.M","code":"CHEM3175","title":"Advanced Organic Chemistry","hours":"2 hours","location":"-","room":"-"},{"date":"03\/05\/2024","time":"9:00 A.M","code":"COMP3435","title":"User Interface Design","hours":"2 hours","location":"-","room":"-"},{"date":"03\/05\/2024","time":"9:00 A.M","code":"LAW2710","title":"Administrative Law","hours":"2 hours","location":"-","room":"-"},{"date":"03\/05\/2024","time":"9:00 A.M","code":"SOCI3037","title":"Social Dimensions of Inequality and\r\nMarginalisation","hours":"2 hours","location":"-","room":"-"},{"date":"03\/05\/2024","time":"9:00 A.M","code":"SPSC3004","title":"Sport Operations and Planning","hours":"2 hours","location":"-","room":"-"},{"date":"03\/05\/2024","time":"9:00 A.M","code":"SWEN2000","title":"An Introduction to Requirements\r\nEngineering","hours":"2 hours","location":"-","room":"-"},{"date":"03\/05\/2024","time":"9:00 A.M","code":"THEO3110","title":"History of the Caribbean Church\r\n1492-Present","hours":"2 hours","location":"-","room":"-"},{"date":"03\/05\/2024","time":"1:00 P.M.","code":"FOUN1301","title":"Law, Governance, Society and\r\nEconomy","hours":"2 hours","location":"-","room":"-"},{"date":"03\/05\/2024","time":"1:00 P.M.","code":"HNDT2002","title":"Nutrition Assessment","hours":"2 hours","location":"-","room":"-"},{"date":"03\/05\/2024","time":"1:00 P.M.","code":"METE3600","title":"Numerical Weather Prediction and\r\nComputational Methods","hours":"2 hours","location":"-","room":"-"},{"date":"03\/05\/2024","time":"1:00 P.M.","code":"MKTG3070","title":"Consumer Behaviour","hours":"2 hours","location":"-","room":"-"},{"date":"03\/05\/2024","time":"4:00 P.M.","code":"ELET3215","title":"Microcontroller Technology","hours":"2 hours","location":"-","room":"-"},{"date":"03\/05\/2024","time":"4:00 P.M.","code":"GOVT2057","title":"EGovernance for Small Island\r\nDeveloping States 1","hours":"2 hours","location":"-","room":"-"},{"date":"03\/05\/2024","time":"4:00 P.M.","code":"GOVT3046","title":"Introduction to International\r\nOrganisations","hours":"2 hours","location":"-","room":"-"},{"date":"03\/05\/2024","time":"4:00 P.M.","code":"PSYC2040","title":"Cognition, Learning and Thought","hours":"2 hours","location":"-","room":"-"},{"date":"03\/05\/2024","time":"4:00 P.M.","code":"SOCI3033","title":"Drugs and Society","hours":"2 hours","location":"-","room":"-"},{"date":"03\/05\/2024","time":"4:00 P.M.","code":"SOWK3009","title":"Theory and Practice of Social Work:\r\nCommunity Organisation","hours":"2 hours","location":"-","room":"-"},{"date":"03\/05\/2024","time":"4:00 P.M.","code":"SWEN2014","title":"Intermediate Chinese Culture and\r\nLanguage","hours":"2 hours","location":"-","room":"-"},{"date":"06\/05\/2024","time":"9:00 A.M","code":"EGOV6040","title":"Managing Organizational\r\nChange in the New Economy","hours":"3 hours","location":"-","room":"-"},{"date":"06\/05\/2024","time":"9:00 A.M","code":"FINA6080","title":"Risk Management of Financial\r\nInstitutions","hours":"3 hours","location":"-","room":"-"},{"date":"06\/05\/2024","time":"9:00 A.M","code":"HRNM6113","title":"Performance Management","hours":"3 hours","location":"-","room":"-"},{"date":"06\/05\/2024","time":"9:00 A.M","code":"LAW6410","title":"Advanced Insurance Law","hours":"3 hours","location":"-","room":"-"},{"date":"06\/05\/2024","time":"9:00 A.M","code":"LGSC6014","title":"Logistics and Supply Chain\r\nManagement","hours":"3 hours","location":"-","room":"-"},{"date":"06\/05\/2024","time":"9:00 A.M","code":"PBHE6110","title":"Epidemiology of Priority\r\nDiseases","hours":"3 hours","location":"-","room":"-"},{"date":"06\/05\/2024","time":"9:00 A.M","code":"PENU6005","title":"Health Promotion Across the\r\nIllness - Wellness","hours":"3 hours","location":"-","room":"-"},{"date":"06\/05\/2024","time":"9:00 A.M","code":"MKTG6030","title":"Marketing Research","hours":"2 hours","location":"-","room":"-"},{"date":"06\/05\/2024","time":"9:00 A.M","code":"SBFI6025","title":"Financial and Risk Management","hours":"3 hours","location":"-","room":"-"},{"date":"06\/05\/2024","time":"9:00 A.M","code":"ACCT3040","title":"Advanced Accounting Theory","hours":"2 hours","location":"-","room":"-"},{"date":"06\/05\/2024","time":"9:00 A.M","code":"LAW2810","title":"Equitable Remedies","hours":"2 hours","location":"-","room":"-"},{"date":"06\/05\/2024","time":"9:00 A.M","code":"MDSC1000","title":"Fundamentals of Disease and\r\nTreatment","hours":"2 hours","location":"-","room":"-"},{"date":"06\/05\/2024","time":"9:00 A.M","code":"THEO1002","title":"Introduction to New Testament\r\nLiterature","hours":"2 hours","location":"-","room":"-"},{"date":"06\/05\/2024","time":"1:00 P.M.","code":"ELET1215","title":"Digital Electronics II","hours":"2 hours","location":"-","room":"-"},{"date":"06\/05\/2024","time":"1:00 P.M.","code":"LAW3740","title":"Comparative Law","hours":"2 hours","location":"-","room":"-"},{"date":"06\/05\/2024","time":"1:00 P.M.","code":"METE1305","title":"Introduction to Climate Change\r\nand Society","hours":"2 hours","location":"-","room":"-"},{"date":"06\/05\/2024","time":"1:00 P.M.","code":"SPSC2010","title":"Exercise Physiology","hours":"2 hours","location":"-","room":"-"},{"date":"06\/05\/2024","time":"4:00 P.M.","code":"BIOC2366","title":"Protein Biochemistry","hours":"2 hours","location":"-","room":"-"},{"date":"06\/05\/2024","time":"4:00 P.M.","code":"COMP2415","title":"Information Technology\r\nEngineering","hours":"2 hours","location":"-","room":"-"},{"date":"06\/05\/2024","time":"4:00 P.M.","code":"ECON3017","title":"Public Finance II","hours":"2 hours","location":"-","room":"-"},{"date":"06\/05\/2024","time":"4:00 P.M.","code":"EDSC1200","title":"Introduction to Health Education\r\nPedagogy","hours":"2 hours","location":"-","room":"-"},{"date":"06\/05\/2024","time":"4:00 P.M.","code":"HESC3002","title":"Epidemiology I","hours":"2 hours","location":"-","room":"-"},{"date":"06\/05\/2024","time":"4:00 P.M.","code":"LITS2516","title":"West Indian Literary Classics Il","hours":"2 hours","location":"-","room":"-"},{"date":"06\/05\/2024","time":"4:00 P.M.","code":"MGMT2021","title":"Business Law","hours":"2 hours","location":"-","room":"-"},{"date":"06\/05\/2024","time":"4:00 P.M.","code":"MGMT3130","title":"Leading and Managing\r\nTechnological Development","hours":"2 hours","location":"-","room":"-"},{"date":"06\/05\/2024","time":"4:00 P.M.","code":"PSYC1008","title":"Intro to Sports Psychology","hours":"2 hours","location":"-","room":"-"},{"date":"06\/05\/2024","time":"4:00 P.M.","code":"PSYC2001","title":"Counselling I","hours":"2 hours","location":"-","room":"-"},{"date":"06\/05\/2024","time":"4:00 P.M.","code":"SOCI3032","title":"Criminology I","hours":"2 hours","location":"-","room":"-"},{"date":"06\/05\/2024","time":"4:00 P.M.","code":"SWEN2011","title":"Beginners Chinese Language and IT\r\nB","hours":"2 hours","location":"-","room":"-"},{"date":"06\/05\/2024","time":"4:00 P.M.","code":"THEA1000","title":"Introduction to Theatre","hours":"2 hours","location":"-","room":"-"},{"date":"07\/05\/2024","time":"9:00 A.M","code":"ACCT6031","title":"Advanced Performance\r\nManagement","hours":"3 hours","location":"-","room":"-"},{"date":"07\/05\/2024","time":"9:00 A.M","code":"ECON6043","title":"Financial Economics","hours":"3 hours","location":"-","room":"-"},{"date":"07\/05\/2024","time":"9:00 A.M","code":"EDRS6002","title":"Research Methods and Statistics\r\nin Education","hours":"3 hours","location":"-","room":"-"},{"date":"07\/05\/2024","time":"9:00 A.M","code":"FINA6090","title":"Derivatives","hours":"3 hours","location":"-","room":"-"},{"date":"07\/05\/2024","time":"9:00 A.M","code":"GEMA6003","title":"Marketing Management\r\n(Domestic & International)","hours":"3 hours","location":"-","room":"-"},{"date":"07\/05\/2024","time":"9:00 A.M","code":"IMGT6010","title":"International Marketing","hours":"3 hours","location":"-","room":"-"},{"date":"07\/05\/2024","time":"9:00 A.M","code":"CHEM1120","title":"Introduction to Physical Chemistry","hours":"2 hours","location":"-","room":"-"},{"date":"07\/05\/2024","time":"9:00 A.M","code":"COMP3415","title":"Database Management Systems II","hours":"2 hours","location":"-","room":"-"},{"date":"07\/05\/2024","time":"9:00 A.M","code":"ECON1002","title":"Introduction to Macroeconomics","hours":"2 hours","location":"-","room":"-"},{"date":"07\/05\/2024","time":"9:00 A.M","code":"LITS1002","title":"Introduction to Prose Fiction","hours":"2 hours","location":"-","room":"-"},{"date":"07\/05\/2024","time":"9:00 A.M","code":"TOUR2001","title":"Caribbean Tourism","hours":"2 hours","location":"-","room":"-"},{"date":"07\/05\/2024","time":"1:00 P.M.","code":"ECON3075","title":"Advanced Financial Economics","hours":"2 hours","location":"-","room":"-"},{"date":"07\/05\/2024","time":"1:00 P.M.","code":"GOVT2047","title":"Principles of Public International","hours":"2 hours","location":"-","room":"-"},{"date":"07\/05\/2024","time":"1:00 P.M.","code":"HNDT2009","title":"Advanced Nutrition","hours":"2 hours","location":"-","room":"-"},{"date":"07\/05\/2024","time":"1:00 P.M.","code":"METE3310","title":"The Tropics and Tropical Weather\r\nSystems","hours":"2 hours","location":"-","room":"-"},{"date":"07\/05\/2024","time":"1:00 P.M.","code":"PHYS2415","title":"Theory of Classical Mechanics","hours":"2 hours","location":"-","room":"-"},{"date":"07\/05\/2024","time":"4:00 P.M.","code":"CHEM2730","title":"Quantitative Chemical Analysis","hours":"2 hours","location":"-","room":"-"},{"date":"07\/05\/2024","time":"4:00 P.M.","code":"LAW3840","title":"Alternative Disputes Resolution","hours":"2 hours","location":"-","room":"-"},{"date":"07\/05\/2024","time":"4:00 P.M.","code":"MGMT3038","title":"Cross National Management","hours":"2 hours","location":"-","room":"-"},{"date":"07\/05\/2024","time":"4:00 P.M.","code":"MGMT3090","title":"Entrepreneurial Finance","hours":"2 hours","location":"-","room":"-"},{"date":"07\/05\/2024","time":"4:00 P.M.","code":"MICR3267","title":"Essential Virology","hours":"2 hours","location":"-","room":"-"},{"date":"07\/05\/2024","time":"4:00 P.M.","code":"PSYC1004","title":"Introduction to Social Psychology","hours":"2 hours","location":"-","room":"-"},{"date":"07\/05\/2024","time":"4:00 P.M.","code":"PSYC2018","title":"Social Psychology of Sports and\r\nExercise","hours":"2 hours","location":"-","room":"-"},{"date":"08\/05\/2024","time":"9:00 A.M","code":"ACCT6015","title":"Equity and Fixed Income\r\nSecurities","hours":"3 hours","location":"-","room":"-"},{"date":"08\/05\/2024","time":"9:00 A.M","code":"EDME6010","title":"Basics of Programme Evaluation\r\nand Quality Assurance","hours":"3 hours","location":"-","room":"-"},{"date":"08\/05\/2024","time":"9:00 A.M","code":"EGOV6080","title":"e-Democracy and Access to e-Government","hours":"3 hours","location":"-","room":"-"},{"date":"08\/05\/2024","time":"9:00 A.M","code":"MKTG6070","title":"Integrated Marketing\r\nCommunications","hours":"3 hours","location":"-","room":"-"},{"date":"08\/05\/2024","time":"9:00 A.M","code":"NURS6701","title":"Theoretical Perspectives in\r\nNursing","hours":"3 hours","location":"-","room":"-"},{"date":"08\/05\/2024","time":"9:00 A.M","code":"PSYC6120","title":"Psychometrics II; Personality\r\nTesting","hours":"3 hours","location":"-","room":"-"},{"date":"08\/05\/2024","time":"9:00 A.M","code":"SBFI6005","title":"Private Equity","hours":"3hours","location":"-","room":"-"},{"date":"08\/05\/2024","time":"9:00 A.M","code":"TOUR6160","title":"Sport Policy and Development","hours":"3 hours","location":"-","room":"-"},{"date":"08\/05\/2024","time":"9:00 A.M","code":"ECON1004","title":"Mathematics for Social Sciences II","hours":"2 hours","location":"-","room":"-"},{"date":"08\/05\/2024","time":"9:00 A.M","code":"FOUN1006","title":"Exposition for Academic Purposes","hours":"2 hours","location":"-","room":"-"},{"date":"08\/05\/2024","time":"9:00 A.M","code":"MGMT3225","title":"Technologies for Project\r\nManagement","hours":"2 hours","location":"-","room":"-"},{"date":"08\/05\/2024","time":"9:00 A.M","code":"SOCI2007","title":"Survey Design and Analysis","hours":"2 hours","location":"-","room":"-"},{"date":"08\/05\/2024","time":"1:00 P.M.","code":"BIOC2370","title":"Cell Signals","hours":"2 hours","location":"-","room":"-"},{"date":"08\/05\/2024","time":"1:00 P.M.","code":"HIST3105","title":"Ideas of Liberation in Latin America","hours":"2 hours","location":"-","room":"-"},{"date":"08\/05\/2024","time":"1:00 P.M.","code":"MATH1230","title":"Introductory Applied Statistics I","hours":"2 hours","location":"-","room":"-"},{"date":"08\/05\/2024","time":"4:00 P.M.","code":"COMP0002","title":"Preliminary Computer Science II","hours":"2 hours","location":"-","room":"-"},{"date":"08\/05\/2024","time":"4:00 P.M.","code":"EDTE3404","title":"Issues in Teacher Education","hours":"2 hours","location":"-","room":"-"},{"date":"08\/05\/2024","time":"4:00 P.M.","code":"FINA2002","title":"Quantitative Methods for Banking\r\nand Finance","hours":"2 hours","location":"-","room":"-"},{"date":"08\/05\/2024","time":"4:00 P.M.","code":"GEND2201","title":"Women's Studies I: An Introduction\r\nto Feminist Theories","hours":"2 hours","location":"-","room":"-"},{"date":"08\/05\/2024","time":"4:00 P.M.","code":"GOVT3049","title":"Caribbean International Politics","hours":"2 hours","location":"-","room":"-"},{"date":"08\/05\/2024","time":"4:00 P.M.","code":"LAW3165","title":"International Commercial\r\nArbitration","hours":"2 hours","location":"-","room":"-"},{"date":"08\/05\/2024","time":"4:00 P.M.","code":"METE2120","title":"Physical Meteorology","hours":"2 hours","location":"-","room":"-"},{"date":"08\/05\/2024","time":"4:00 P.M.","code":"MGMT3117","title":"Entrepreneurial Growth Strategies","hours":"2 hours","location":"-","room":"-"},{"date":"08\/05\/2024","time":"4:00 P.M.","code":"PSYC2007","title":"Psychometrics I","hours":"2 hours","location":"-","room":"-"},{"date":"08\/05\/2024","time":"4:00 P.M.","code":"SOCI3013","title":"Social Policy","hours":"2 hours","location":"-","room":"-"},{"date":"08\/05\/2024","time":"4:00 P.M.","code":"TOUR2003","title":"Tourism Planning and\r\nDevelopment II","hours":"2 hours","location":"-","room":"-"},{"date":"09\/05\/2024","time":"9:00 A.M","code":"ACCT6017","title":"Quantitative Methods for\r\nManagement","hours":"3 hours","location":"-","room":"-"},{"date":"09\/05\/2024","time":"9:00 A.M","code":"CHEM0625","title":"Preliminary Chemistry II","hours":"3 hours","location":"-","room":"-"},{"date":"09\/05\/2024","time":"9:00 A.M","code":"ECON6031","title":"Macroeconomic Theory","hours":"3 hours","location":"-","room":"-"},{"date":"09\/05\/2024","time":"9:00 A.M","code":"FINA6030","title":"Quantitative Methods","hours":"3 hours","location":"-","room":"-"},{"date":"09\/05\/2024","time":"9:00 A.M","code":"HRNM0100","title":"Human Resource Management","hours":"3 hours","location":"-","room":"-"},{"date":"09\/05\/2024","time":"9:00 A.M","code":"INBA6010","title":"Quantitative Business Analysis","hours":"3hours","location":"-","room":"-"},{"date":"09\/05\/2024","time":"9:00 A.M","code":"LAW6530","title":"International Commercial\r\nLitigation","hours":"3 hours","location":"-","room":"-"},{"date":"09\/05\/2024","time":"9:00 A.M","code":"LGSC6005","title":"Strategic Supply Chain\r\nManagement","hours":"3 hours","location":"-","room":"-"},{"date":"09\/05\/2024","time":"9:00 A.M","code":"PTMT6029","title":"Project Resources Management","hours":"3 hours","location":"-","room":"-"},{"date":"09\/05\/2024","time":"9:00 A.M","code":"SBCO6208","title":"Quantitative Methods and\r\nStatistical","hours":"3 hours","location":"-","room":"-"},{"date":"09\/05\/2024","time":"9:00 A.M","code":"ECON2026","title":"Statistical Methods II","hours":"2 hours","location":"-","room":"-"},{"date":"09\/05\/2024","time":"9:00 A.M","code":"FOUN1004","title":"An Introduction to Argument","hours":"2 hours","location":"-","room":"-"},{"date":"09\/05\/2024","time":"9:00 A.M","code":"GOVT1011","title":"Introduction to Caribbean Politics","hours":"2 hours","location":"-","room":"-"},{"date":"09\/05\/2024","time":"9:00 A.M","code":"MGMT3024","title":"Business Communication","hours":"2 hours","location":"-","room":"-"},{"date":"09\/05\/2024","time":"9:00 A.M","code":"THEO2325","title":"Systematic Theology II","hours":"2 hours","location":"-","room":"-"},{"date":"09\/05\/2024","time":"1:00 P.M","code":"CHEM1130","title":"Introduction to Inorganic Chemistry","hours":"2 hours","location":"-","room":"-"},{"date":"09\/05\/2024","time":"1:00 P.M.","code":"COMP1180","title":"Mathematics for Computer Science\r\nI","hours":"2 hours","location":"-","room":"-"},{"date":"09\/05\/2024","time":"1:00 P.M.","code":"ENSC2003","title":"Sustainable Energy Systems","hours":"2 hours","location":"-","room":"-"},{"date":"09\/05\/2024","time":"1:00 P.M.","code":"GOVT3050","title":"Comparative Foreign Policy:\r\nDeveloped and Developing States","hours":"2 hours","location":"-","room":"-"},{"date":"09\/05\/2024","time":"1:00 P.M.","code":"MATH3545","title":"Linear Algebra 2","hours":"2 hours","location":"-","room":"-"},{"date":"09\/05\/2024","time":"1:00 P.M.","code":"SPSC1000","title":"Introduction to Human Physiology","hours":"2 hours","location":"-","room":"-"},{"date":"09\/05\/2024","time":"1:00 P.M.","code":"SPSC3002","title":"Nutritional Manipulation","hours":"2 hours","location":"-","room":"-"},{"date":"09\/05\/2024","time":"4:00 P.M.","code":"COMP3420","title":"Computer Graphics","hours":"2 hours","location":"-","room":"-"},{"date":"09\/05\/2024","time":"4:00 P.M.","code":"ECOL3454","title":"Fisheries Biology","hours":"2 hours","location":"-","room":"-"},{"date":"09\/05\/2024","time":"4:00 P.M.","code":"EDLA2112","title":"The Structure and Nature of\r\nLanguage","hours":"2 hours","location":"-","room":"-"},{"date":"09\/05\/2024","time":"4:00 P.M.","code":"HIST3035","title":"Gender & Race in Latin America","hours":"2 hours","location":"-","room":"-"},{"date":"09\/05\/2024","time":"4:00 P.M.","code":"HNDT2003","title":"Food Service Management System","hours":"2 hours","location":"-","room":"-"},{"date":"09\/05\/2024","time":"4:00 P.M.","code":"LAW3140","title":"Law of Corporate Insolvency","hours":"2 hours","location":"-","room":"-"},{"date":"09\/05\/2024","time":"4:00 P.M.","code":"LING1003","title":"Essentials of English Grammar","hours":"2 hours","location":"-","room":"-"},{"date":"09\/05\/2024","time":"4:00 P.M.","code":"MGMT3017","title":"Human Resources Management","hours":"2 hours","location":"-","room":"-"},{"date":"09\/05\/2024","time":"4:00 P.M.","code":"MICR3265","title":"Microbiology of Food","hours":"2 hours","location":"-","room":"-"},{"date":"09\/05\/2024","time":"4:00 P.M.","code":"PSYC2020","title":"Psychopathology and Wellbeing","hours":"2 hours","location":"-","room":"-"},{"date":"09\/05\/2024","time":"4:00 P.M.","code":"SOCI2014","title":"Caribbean Kinship","hours":"2 hours","location":"-","room":"-"},{"date":"10\/05\/2024","time":"9:00 A.M","code":"ACCT6011","title":"Corporate Finance","hours":"3 hours","location":"-","room":"-"},{"date":"10\/05\/2024","time":"9:00 A.M","code":"FINA6003","title":"Entrepreneurial Finance","hours":"3 hours","location":"-","room":"-"},{"date":"10\/05\/2024","time":"9:00 A.M","code":"GEMA0103","title":"Caribbean Business Environment","hours":"3 hours","location":"-","room":"-"},{"date":"10\/05\/2024","time":"9:00 A.M","code":"HRNM0101","title":"Strategic Human Resource\r\nPlanning","hours":"3 hours","location":"-","room":"-"},{"date":"10\/05\/2024","time":"9:00 A.M","code":"HRNM6107","title":"Human Resource Management","hours":"3 hours","location":"-","room":"-"},{"date":"10\/05\/2024","time":"9:00 A.M","code":"LGSC6011","title":"Pricing & Revenue Management","hours":"3 hours","location":"-","room":"-"},{"date":"10\/05\/2024","time":"9:00 A.M","code":"NURS6703","title":"Practice Issues in Managing\r\nNursing","hours":"3 hours","location":"-","room":"-"},{"date":"10\/05\/2024","time":"9:00 A.M","code":"PTMT6028","title":"Advanced Risk Management","hours":"3 hours","location":"-","room":"-"},{"date":"10\/05\/2024","time":"9:00 A.M","code":"SBCO6213","title":"Corporate Finance","hours":"3 hours","location":"-","room":"-"},{"date":"10\/05\/2024","time":"9:00 A.M","code":"TOUR6150","title":"Human Resource Management","hours":"3 hours","location":"-","room":"-"},{"date":"10\/05\/2024","time":"9:00 A.M","code":"BIOL3025","title":"Molecular Plant Pathology","hours":"2 hours","location":"-","room":"-"},{"date":"10\/05\/2024","time":"9:00 A.M","code":"COMS2600","title":"Communication and Caribbean\r\nSociety","hours":"2 hours","location":"-","room":"-"},{"date":"10\/05\/2024","time":"9:00 A.M","code":"EDSO3102","title":"The Social Context of Education","hours":"2 hours","location":"-","room":"-"},{"date":"10\/05\/2024","time":"9:00 A.M","code":"FINA2004","title":"Portfolio Management I","hours":"2 hours","location":"-","room":"-"},{"date":"10\/05\/2024","time":"9:00 A.M","code":"FOUN0100","title":"Fundamentals of Written English","hours":"2 hours","location":"-","room":"-"},{"date":"10\/05\/2024","time":"9:00 A.M","code":"LAW2220","title":"Real Property II","hours":"2 hours","location":"-","room":"-"},{"date":"10\/05\/2024","time":"9:00 A.M","code":"LING3202","title":"Creole Linguistics","hours":"2 hours","location":"-","room":"-"},{"date":"10\/05\/2024","time":"9:00 A.M","code":"PHYS1210","title":"Physics III: Electric Fields, Current\r\nand Circuits","hours":"2 hours","location":"-","room":"-"},{"date":"10\/05\/2024","time":"9:00 A.M","code":"THEO1220","title":"Introduction to Spirituality and\r\nChristian Ministry","hours":"2 hours","location":"-","room":"-"}]