[{"date":"12\/04\/2023","time":"9:00 am","code":"ACCT1003","title":"Introduction to Management and Cost Accounting (AGARD - HUNTE)","hours":"2 hours","room":"LR14","location":"SAGICOR BUILDING"},{"date":"12\/04\/2023","time":"9:00 am","code":"ACCT1003","title":"Introduction to Management and Cost Accounting (HURDLE - ROBERTSON-LEWIS)","hours":"2 hours","room":"LR13","location":"SAGICOR BUILDING"},{"date":"12\/04\/2023","time":"9:00 am","code":"ACCT1003","title":"Introduction to Management and Cost Accounting (ROWE - WORRELL)","hours":"2 hours","room":"LR6","location":"CLICO BUILDING"},{"date":"12\/04\/2023","time":"9:00 am","code":"ACCT2017","title":"Management Accounting I (ABSALOM- DEVONISH)","hours":"2 hours","room":"LR8","location":"CLICO BUILDING"},{"date":"12\/04\/2023","time":"9:00 am","code":"ACCT2017","title":"Management Accounting I (DOS SANTOS - MORRIS)","hours":"2 hours","room":"LR9","location":"CLICO BUILDING"},{"date":"12\/04\/2023","time":"9:00 am","code":"ACCT2017","title":"Management Accounting I (MURRAY - YOUNG)","hours":"2 hours","room":"LR7","location":"CLICO BUILDING"},{"date":"12\/04\/2023","time":"9:00 am","code":"COMP6304","title":"Information Security, Ethics and Legal","hours":"3 hours","room":"LR6","location":"CLICO BUILDING"},{"date":"12\/04\/2023","time":"9:00 am","code":"COSY6020","title":"Ethical and Legal Issues in Counselling","hours":"3 hours","room":"LR1&2","location":"ROY MARSHALL BUILDING"},{"date":"12\/04\/2023","time":"9:00 am","code":"EDCL6000","title":"School Counselling: Guidance Programmes and Professional Knowledge","hours":"3 hours","room":"LR1&2","location":"ROY MARSHALL BUILDING"},{"date":"12\/04\/2023","time":"9:00 am","code":"EGOV6020","title":"E-Governance for Development","hours":"3 hours","room":"LR4","location":"ROY MARSHALL BUILDING"},{"date":"12\/04\/2023","time":"9:00 am","code":"HRNM0103","title":"Industrial Relations","hours":"3 hours","room":"LR4","location":"ROY MARSHALL BUILDING"},{"date":"12\/04\/2023","time":"9:00 am","code":"MGMT6901","title":"Research Methods for Business","hours":"3 hours","room":"LR1&2","location":"ROY MARSHALL BUILDING"},{"date":"12\/04\/2023","time":"9:00 am","code":"MISY6010","title":"Information Systems to Strategic Management","hours":"3 hours","room":"LR1&2","location":"ROY MARSHALL BUILDING"},{"date":"12\/04\/2023","time":"9:00 am","code":"MISY6020","title":"Information Systems (Cyber) Security & Management","hours":"3 hours","room":"LR3","location":"ROY MARSHALL BUILDING"},{"date":"12\/04\/2023","time":"9:00 am","code":"NURS6401","title":"Nursing and Health Information System","hours":"3 hours","room":"LR3","location":"ROY MARSHALL BUILDING"},{"date":"12\/04\/2023","time":"9:00 am","code":"PBHE6015","title":"Social and Behavioural Science","hours":"3 hours","room":"LR3","location":"ROY MARSHALL BUILDING"},{"date":"12\/04\/2023","time":"9:00 am","code":"PBHE6510","title":"Leadership in Public Health","hours":"3 hours","room":"LR3","location":"ROY MARSHALL BUILDING"},{"date":"12\/04\/2023","time":"9:00 am","code":"PSYC6130","title":"Ethical and Legal Issues in Psychol","hours":"3 hours","room":"LR1&2","location":"ROY MARSHALL BUILDING"},{"date":"12\/04\/2023","time":"9:00 am","code":"PUBH6001","title":"Research Methods 1, MONA STUDENTS ONLY","hours":"3 hours","room":"LR3","location":"ROY MARSHALL BUILDING"},{"date":"12\/04\/2023","time":"9:00 am","code":"SPSC6902","title":"Research Methods","hours":"3 hours","room":"LR1&2","location":"ROY MARSHALL BUILDING"},{"date":"12\/04\/2023","time":"9:00 am","code":"THEO6323","title":"The Wisdom Literature","hours":"3 hours","room":"LR4","location":"ROY MARSHALL BUILDING"},{"date":"12\/04\/2023","time":"1:00 pm","code":"CHEM3167","title":"Advanced Inorganic Chemistry","hours":"2 hours","room":"PLD","location":"PHYSICS LAB DOWN"},{"date":"12\/04\/2023","time":"1:00 pm","code":"CLTR2500","title":"Intro to Caribbean Cultural Studies","hours":"2 hours","room":"PLU","location":"PHYSICS LAB UP"},{"date":"12\/04\/2023","time":"1:00 pm","code":"MGMT3037","title":"International Business Management","hours":"2 hours","room":"PLD","location":"PHYSICS LAB DOWN"},{"date":"12\/04\/2023","time":"1:00 pm","code":"SPSC3005","title":"Sport in the Global Market Place","hours":"2 hours","room":"PLU","location":"PHYSICS LAB UP"},{"date":"12\/04\/2023","time":"1:00 pm","code":"THEO3318","title":"Caribbean Theology","hours":"2 hours","room":"PLU","location":"PHYSICS LAB UP"},{"date":"12\/04\/2023","time":"4:00 pm","code":"ACCT3043","title":"Auditing I (ALBERT - MCCLEAN)","hours":"2 hours","room":"LR14","location":"SAGICOR BUILDING"},{"date":"12\/04\/2023","time":"4:00 pm","code":"ACCT3043","title":"Auditing I (MILLER - WORRELL)","hours":"2 hours","room":"LR13","location":"SAGICOR BUILDING"},{"date":"12\/04\/2023","time":"4:00 pm","code":"ECON3019","title":"Transport Economics and Management","hours":"2 hours","room":"LR8","location":"CLICO BUILDING"},{"date":"12\/04\/2023","time":"4:00 pm","code":"EDSE3901","title":"Education of Children with Physical & Health Impairment","hours":"2 hours","room":"LR7","location":"CLICO BUILDING"},{"date":"12\/04\/2023","time":"4:00 pm","code":"HESC1010","title":"Fundamentals of Nutrition","hours":"2 hours","room":"PLD","location":"PHYSICS LAB DOWN"},{"date":"12\/04\/2023","time":"4:00 pm","code":"HIST3030","title":"The Evolution of Social Policy in Barbados","hours":"2 hours","room":"LR7","location":"CLICO BUILDING"},{"date":"12\/04\/2023","time":"4:00 pm","code":"HIST3301","title":"The Rise and Fall of Apartheid","hours":"2 hours","room":"LR7","location":"CLICO BUILDING"},{"date":"12\/04\/2023","time":"4:00 pm","code":"HNDT2001","title":"Introduction to Food Science","hours":"2 hours","room":"PLD","location":"PHYSICS LAB DOWN"},{"date":"12\/04\/2023","time":"4:00 pm","code":"LAW2510","title":"Jurisprudence (ABAN - LAING)","hours":"2 hours","room":"LR1&2","location":"ROY MARSHALL BUILDING"},{"date":"12\/04\/2023","time":"4:00 pm","code":"LAW2510","title":"Jurisprudence (LASHLEY - WRIGHT)","hours":"2 hours","room":"LR3","location":"ROY MARSHALL BUILDING"},{"date":"12\/04\/2023","time":"4:00 pm","code":"LITS3005","title":"Contemporary Poetry","hours":"2 hours","room":"LR7","location":"CLICO BUILDING"},{"date":"12\/04\/2023","time":"4:00 pm","code":"MDSC2103","title":"The Cardiovascular System - Unit II","hours":"2 hours","room":"PLD","location":"PHYSICS LAB DOWN"},{"date":"12\/04\/2023","time":"4:00 pm","code":"MGMT3063","title":"Labour and Employment Law","hours":"2 hours","room":"MSR1&2","location":"MANAGEMENT STUDIES"},{"date":"12\/04\/2023","time":"4:00 pm","code":"MGMT3215","title":"Project Management Methodologies","hours":"2 hours","room":"LR8","location":"CLICO BUILDING"},{"date":"12\/04\/2023","time":"4:00 pm","code":"MUSC1025","title":"Introduction to Harmony","hours":"2 hours","room":"MSR1&2","location":"MANAGEMENT STUDIES"},{"date":"12\/04\/2023","time":"4:00 pm","code":"PHIL2904","title":"Philosophical Logic","hours":"2 hours","room":"LR7","location":"CLICO BUILDING"},{"date":"12\/04\/2023","time":"4:00 pm","code":"SOWK3034","title":"Children and Family Services","hours":"2 hours","room":"LR8","location":"CLICO BUILDING"},{"date":"12\/05\/2023","time":"9:00 am","code":"ACCT6010","title":"Accounting for Managerial Decision","hours":"3 hours","room":"LR1&2","location":"ROY MARSHALL BUILDING"},{"date":"12\/05\/2023","time":"9:00 am","code":"ACCT6027","title":"Portfolio Management and Wealth Planning","hours":"3 hours","room":"LR4","location":"ROY MARSHALL BUILDING"},{"date":"12\/05\/2023","time":"9:00 am","code":"EDEP6001","title":"Caribbean Ideologies and Policies in Education Reform","hours":"3 hours","room":"LR3","location":"ROY MARSHALL BUILDING"},{"date":"12\/05\/2023","time":"9:00 am","code":"EGOV6090","title":"Project Management","hours":"3 hours","room":"LR4","location":"ROY MARSHALL BUILDING"},{"date":"12\/05\/2023","time":"9:00 am","code":"FINA6110","title":"Investment Analysis and Portfolio Management","hours":"3 hours","room":"LR4","location":"ROY MARSHALL BUILDING"},{"date":"12\/05\/2023","time":"9:00 am","code":"GEMA6104","title":"Accounting for Decision Making","hours":"3 hours","room":"LR1&2","location":"ROY MARSHALL BUILDING"},{"date":"12\/05\/2023","time":"9:00 am","code":"HRNM6002","title":"Financial Management & Accounting","hours":"3 hours","room":"LR1&2","location":"ROY MARSHALL BUILDING"},{"date":"12\/05\/2023","time":"9:00 am","code":"HRNM6110","title":"Human Resource Development","hours":"3 hours","room":"LR3","location":"ROY MARSHALL BUILDING"},{"date":"12\/05\/2023","time":"9:00 am","code":"HRNM6111","title":"Strategic Human Resource Management","hours":"3 hours","room":"LR1&2","location":"ROY MARSHALL BUILDING"},{"date":"12\/05\/2023","time":"9:00 am","code":"IMGT6218","title":"International Business Environment","hours":"3 hours","room":"LR3","location":"ROY MARSHALL BUILDING"},{"date":"12\/05\/2023","time":"9:00 am","code":"INBA6045","title":"Strategic HR Mgmt","hours":"3 hours","room":"LR1&2","location":"ROY MARSHALL BUILDING"},{"date":"12\/05\/2023","time":"9:00 am","code":"LAW6200","title":"The Management of Intellectual Property","hours":"3 hours","room":"LR4","location":"ROY MARSHALL BUILDING"},{"date":"12\/05\/2023","time":"9:00 am","code":"MKTG2001","title":"Principes of Marketing (AANENSEN - GAILLARD)","hours":"2 hours","room":"LR7","location":"CLICO BUILDING"},{"date":"12\/05\/2023","time":"9:00 am","code":"MKTG2001","title":"Principes of Marketing (HURDLE - SMALL)","hours":"2 hours","room":"LR8","location":"CLICO BUILDING"},{"date":"12\/05\/2023","time":"9:00 am","code":"MKTG2001","title":"Principes of Marketing (SMITH - ZAMORE)","hours":"2 hours","room":"LR9","location":"CLICO BUILDING"},{"date":"12\/05\/2023","time":"9:00 am","code":"MKTG6010","title":"Consumer Behaviour","hours":"3 hours","room":"LR3","location":"ROY MARSHALL BUILDING"},{"date":"12\/05\/2023","time":"9:00 am","code":"PSYC3017","title":"Contemporary Personality Theories & Assessment","hours":"2 hours","room":"MSR1&2","location":"MANAGEMENT STUDIES"},{"date":"12\/05\/2023","time":"9:00 am","code":"PTMT6004","title":"Financial Management and Project Financing","hours":"3 hours","room":"LR3","location":"ROY MARSHALL BUILDING"},{"date":"12\/05\/2023","time":"9:00 am","code":"SBCO6211","title":"Finance and Management Accounting","hours":"3 hours","room":"LR1&2","location":"ROY MARSHALL BUILDING"},{"date":"12\/05\/2023","time":"9:00 am","code":"THEO1001","title":"Introduction to Old Testament Literature","hours":"2 hours","room":"MSR1&2","location":"MANAGEMENT STUDIES"},{"date":"12\/05\/2023","time":"1:00 pm","code":"ACCT2014","title":"Financial Accounting I","hours":"2 hours","room":"LR1&2","location":"ROY MARSHALL BUILDING"},{"date":"12\/05\/2023","time":"1:00 pm","code":"COMP3385","title":"Framework Design for Advanced Web Developments","hours":"2 hours","room":"MSR1&2","location":"MANAGEMENT STUDIES"},{"date":"12\/05\/2023","time":"1:00 pm","code":"LAW3630","title":"Caribbean Integration Law","hours":"2 hours","room":"MSR1&2","location":"MANAGEMENT STUDIES"},{"date":"12\/05\/2023","time":"1:00 pm","code":"LING3201","title":"Caribbean Dialectology","hours":"2 hours","room":"S6","location":"SOCIAL SCIENCES"},{"date":"12\/05\/2023","time":"1:00 pm","code":"LITS2101","title":"Novel I: The Rise of the Novel","hours":"2 hours","room":"S6","location":"SOCIAL SCIENCES"},{"date":"12\/05\/2023","time":"1:00 pm","code":"MDSC1301","title":"Behavioural Medicine","hours":"2 hours","room":"LR4","location":"ROY MARSHALL BUILDING"},{"date":"12\/05\/2023","time":"1:00 pm","code":"MENG6402","title":"Human Resource Management 1, ST. AUGUSTINE STUDENTS ONLY","hours":"2 hours","room":"S7","location":"SOCIAL SCIENCES"},{"date":"12\/05\/2023","time":"1:00 pm","code":"MGMT2026","title":"Production and Operations Management (ALEXANDER - GRAHAM)","hours":"2 hours","room":"PLD","location":"PHYSICS LAB DOWN"},{"date":"12\/05\/2023","time":"1:00 pm","code":"MGMT2026","title":"Production and Operations Management (GRANT - NEWSAM)","hours":"2 hours","room":"PLU","location":"PHYSICS LAB UP"},{"date":"12\/05\/2023","time":"1:00 pm","code":"MGMT2026","title":"Production and Operations Management (OUTRAM - YARDE)","hours":"2 hours","room":"LR3","location":"ROY MARSHALL BUILDING"},{"date":"12\/05\/2023","time":"1:00 pm","code":"MGMT3005","title":"Attractions Development and Management","hours":"2 hours","room":"S6","location":"SOCIAL SCIENCES"},{"date":"12\/05\/2023","time":"1:00 pm","code":"SOWK2000","title":"Social Work Theory and Practice with Groups","hours":"2 hours","room":"S7","location":"SOCIAL SCIENCES"},{"date":"12\/05\/2023","time":"4:00 pm","code":"BIOC3370","title":"Basis of Human Disease","hours":"2 hours","room":"LR1&2","location":"ROY MARSHALL BUILDING"},{"date":"12\/05\/2023","time":"4:00 pm","code":"BIOL2166","title":"Advanced Genetics I","hours":"2 hours","room":"LR1&2","location":"ROY MARSHALL BUILDING"},{"date":"12\/05\/2023","time":"4:00 pm","code":"CHEM3218","title":"Environmental Chemistry and Toxicology","hours":"2 hours","room":"LR3","location":"ROY MARSHALL BUILDING"},{"date":"12\/05\/2023","time":"4:00 pm","code":"CLTR3103","title":"Black Popular Culture","hours":"2 hours","room":"LR3","location":"ROY MARSHALL BUILDING"},{"date":"12\/05\/2023","time":"4:00 pm","code":"ECOL3460","title":"Biology and Ecology of Coral Reefs","hours":"2 hours","room":"LR3","location":"ROY MARSHALL BUILDING"},{"date":"12\/05\/2023","time":"4:00 pm","code":"EDPS3804","title":"Principles of Social Psychology","hours":"2 hours","room":"LR4","location":"ROY MARSHALL BUILDING"},{"date":"12\/05\/2023","time":"4:00 pm","code":"ELET2215","title":"Microprocessor Systems","hours":"2 hours","room":"LR4","location":"ROY MARSHALL BUILDING"},{"date":"12\/05\/2023","time":"4:00 pm","code":"FOUN1006","title":"Exposition for Academic Purposes (ABSALOM - CHAN)","hours":"2 hours","room":"LR6","location":"CLICO BUILDING"},{"date":"12\/05\/2023","time":"4:00 pm","code":"FOUN1006","title":"Exposition for Academic Purposes (CHANDLER - HAYNES)","hours":"2 hours","room":"LR7","location":"CLICO BUILDING"},{"date":"12\/05\/2023","time":"4:00 pm","code":"FOUN1006","title":"Exposition for Academic Purposes (HEE CHUNG - PILGRIM)","hours":"2 hours","room":"LR8","location":"CLICO BUILDING"},{"date":"12\/05\/2023","time":"4:00 pm","code":"FOUN1006","title":"Exposition for Academic Purposes (PITCHER - YOUTH)","hours":"2 hours","room":"LR9","location":"CLICO BUILDING"},{"date":"12\/05\/2023","time":"4:00 pm","code":"METE2125","title":"Dynamic Meteorology","hours":"2 hours","room":"LR10","location":"CLICO BUILDING"},{"date":"12\/05\/2023","time":"4:00 pm","code":"METE3420","title":"Radar Meteorology","hours":"2 hours","room":"LR4","location":"ROY MARSHALL BUILDING"},{"date":"12\/05\/2023","time":"4:00 pm","code":"TOUR2002","title":"Transportation and Travel","hours":"2 hours","room":"LR10","location":"CLICO BUILDING"},{"date":"12\/06\/2023","time":"9:00 am","code":"ACCT1002","title":"Introduction to Financial Accounting (AGARD - FEDEE)","hours":"2 hours","room":"LR14","location":"SAGICOR BUILDING"},{"date":"12\/06\/2023","time":"9:00 am","code":"ACCT1002","title":"Introduction to Financial Accounting (FORDE - HOLDER)","hours":"2 hours","room":"LR13","location":"SAGICOR BUILDING"},{"date":"12\/06\/2023","time":"9:00 am","code":"ACCT1002","title":"Introduction to Financial Accounting (HOLLIGAN - MCDONALD)","hours":"2 hours","room":"LR6","location":"CLICO BUILDING"},{"date":"12\/06\/2023","time":"9:00 am","code":"ACCT1002","title":"Introduction to Financial Accounting (MEDFORD - SEALY)","hours":"2 hours","room":"LR7","location":"CLICO BUILDING"},{"date":"12\/06\/2023","time":"9:00 am","code":"ACCT1002","title":"Introduction to Financial Accounting (SEIFERT - YEARWOOD)","hours":"2 hours","room":"LR8","location":"CLICO BUILDING"},{"date":"12\/06\/2023","time":"9:00 am","code":"CHEM0615","title":"Preliminary Chemistry I","hours":"3 hours","room":"LR1&2","location":"ROY MARSHALL BUILDING"},{"date":"12\/06\/2023","time":"9:00 am","code":"FINA6005","title":"Computational Finance","hours":"3 hours","room":"LR3","location":"ROY MARSHALL BUILDING"},{"date":"12\/06\/2023","time":"9:00 am","code":"GEND6100","title":"Contemporary Feminist Theorising","hours":"3 hours","room":"LR3","location":"ROY MARSHALL BUILDING"},{"date":"12\/06\/2023","time":"9:00 am","code":"GOVT3017","title":"Caribbean Government and Politics I","hours":"2 hours","room":"LR9","location":"CLICO BUILDING"},{"date":"12\/06\/2023","time":"9:00 am","code":"GOVT3077","title":"Caribbean Regionalism and World Affairs","hours":"2 hours","room":"LR9","location":"CLICO BUILDING"},{"date":"12\/06\/2023","time":"9:00 am","code":"IMGT6229","title":"International Entrepreneurship and Global Innovation","hours":"3 hours","room":"LR3","location":"ROY MARSHALL BUILDING"},{"date":"12\/06\/2023","time":"9:00 am","code":"INBA6011","title":"International Business","hours":"3 hours","room":"LR4","location":"ROY MARSHALL BUILDING"},{"date":"12\/06\/2023","time":"9:00 am","code":"LAW6470","title":"Advanced Intellectual Property Law","hours":"3 hours","room":"LR4","location":"ROY MARSHALL BUILDING"},{"date":"12\/06\/2023","time":"9:00 am","code":"LIBS6001","title":"Foundations of Library and Information Studies MONA STUDENTS ONLY","hours":"3 hours","room":"LR4","location":"ROY MARSHALL BUILDING"},{"date":"12\/06\/2023","time":"9:00 am","code":"SPSC6005","title":"Advanced Sociology of Sports","hours":"3 hours","room":"LR3","location":"ROY MARSHALL BUILDING"},{"date":"12\/06\/2023","time":"1:00 pm","code":"FOUN1004","title":"An Introduction to Argument (ABEL - JOSEPH)","hours":"2 hours","room":"PLD","location":"PHYSICS LAB DOWN"},{"date":"12\/06\/2023","time":"1:00 pm","code":"FOUN1004","title":"An Introduction to Argument (JULIEN - YEARWOOD)","hours":"2 hours","room":"PLU","location":"PHYSICS LAB UP"},{"date":"12\/06\/2023","time":"1:00 pm","code":"LING2001","title":"Phonology","hours":"2 hours","room":"S6","location":"SOCIAL SCIENCES"},{"date":"12\/06\/2023","time":"1:00 pm","code":"THEO1203","title":"Fundamentals of Christian Ministry","hours":"2 hours","room":"S6","location":"SOCIAL SCIENCES"},{"date":"12\/06\/2023","time":"4:00 pm","code":"COMP1215","title":"UNIX","hours":"2 hours","room":"LR1&2","location":"ROY MARSHALL BUILDING"},{"date":"12\/06\/2023","time":"4:00 pm","code":"EDFA1024","title":"The Social Foundations of Education","hours":"2 hours","room":"LR12","location":"SAGICOR BUILDING"},{"date":"12\/06\/2023","time":"4:00 pm","code":"GOVT1000","title":"Introduction to Political Institutions Analysis","hours":"2 hours","room":"MSR1&2","location":"MANAGEMENT STUDIES"},{"date":"12\/06\/2023","time":"4:00 pm","code":"LAW2310","title":"Public International Law 1, MONA STUDENTS ONLY","hours":"2 hours","room":"LR13","location":"SAGICOR BUILDING"},{"date":"12\/06\/2023","time":"4:00 pm","code":"MATH2304","title":"Multivariable Calculus","hours":"2 hours","room":"LR13","location":"SAGICOR BUILDING"},{"date":"12\/06\/2023","time":"4:00 pm","code":"METE1110","title":"Introduction to Oceans and Climate","hours":"2 hours","room":"LR6","location":"CLICO BUILDING"},{"date":"12\/06\/2023","time":"4:00 pm","code":"METE3210","title":"Advanced Synoptic Meteorology","hours":"2 hours","room":"LR1&2","location":"ROY MARSHALL BUILDING"},{"date":"12\/06\/2023","time":"4:00 pm","code":"MGMT2023","title":"Financial Management I (AGARD - DEVONISH)","hours":"2 hours","room":"LR7","location":"CLICO BUILDING"},{"date":"12\/06\/2023","time":"4:00 pm","code":"MGMT2023","title":"Financial Management I (DAIS - LYTE)","hours":"2 hours","room":"LR8","location":"CLICO BUILDING"},{"date":"12\/06\/2023","time":"4:00 pm","code":"MGMT2023","title":"Financial Management I (MARSHALL - THORPE)","hours":"2 hours","room":"LR9","location":"CLICO BUILDING"},{"date":"12\/06\/2023","time":"4:00 pm","code":"MGMT2023","title":"Financial Management I (TROTMAN - YARDE-ST.HILAIRE)","hours":"2 hours","room":"LR10","location":"CLICO BUILDING"},{"date":"12\/06\/2023","time":"4:00 pm","code":"MICR3266","title":"Ecology of Micro-organisms","hours":"2 hours","room":"LR6","location":"CLICO BUILDING"},{"date":"12\/06\/2023","time":"4:00 pm","code":"PHIL2200","title":"Crime & Punishment - Issues in Legal Justice","hours":"2 hours","room":"LR10","location":"CLICO BUILDING"},{"date":"12\/06\/2023","time":"4:00 pm","code":"PHYS1200","title":"Physics I: Mechanics of Translation Motion","hours":"2 hours","room":"LR13","location":"SAGICOR BUILDING"},{"date":"12\/06\/2023","time":"4:00 pm","code":"SOCI3026","title":"Sociology of Development II","hours":"2 hours","room":"LR11","location":"CLICO BUILDING"},{"date":"12\/06\/2023","time":"4:00 pm","code":"SOWK1001","title":"Introduction to Social Work","hours":"2 hours","room":"LR11","location":"CLICO BUILDING"},{"date":"12\/06\/2023","time":"4:00 pm","code":"SPSC2025","title":"Sport Law","hours":"2 hours","room":"LR4","location":"ROY MARSHALL BUILDING"},{"date":"12\/06\/2023","time":"4:00 pm","code":"SPSC3000","title":"Human Resource Management in Sports","hours":"2 hours","room":"LR4","location":"ROY MARSHALL BUILDING"},{"date":"12\/06\/2023","time":"4:00 pm","code":"SPSC3012","title":"Introduction to Sports Coaching","hours":"2 hours","room":"LR12","location":"SAGICOR BUILDING"},{"date":"12\/07\/2023","time":"9:00 am","code":"ACCT6035","title":"International Tax","hours":"3 hours","room":"MSR1&2","location":"MANAGEMENT STUDIES"},{"date":"12\/07\/2023","time":"9:00 am","code":"BIOL1020","title":"Diversity of Life I (ABAN - KNIGHT)","hours":"2 hours","room":"LR14","location":"SAGICOR BUILDING"},{"date":"12\/07\/2023","time":"9:00 am","code":"BIOL1020","title":"Diversity of Life I (LASHLEY - YARDE)","hours":"2 hours","room":"LR13","location":"SAGICOR BUILDING"},{"date":"12\/07\/2023","time":"9:00 am","code":"COMP0001","title":"Preliminary Computer Science I","hours":"2 hours","room":"PLD","location":"PHYSICS LAB DOWN"},{"date":"12\/07\/2023","time":"9:00 am","code":"FINA6001","title":"Behavioural Finance","hours":"3 hours","room":"MSR1&2","location":"MANAGEMENT STUDIES"},{"date":"12\/07\/2023","time":"9:00 am","code":"GEND2501","title":"Women, Leadership and Change in Developing Countries","hours":"2 hours","room":"LR3","location":"ROY MARSHALL BUILDING"},{"date":"12\/07\/2023","time":"9:00 am","code":"GEOL1101","title":"Earth Science 1: Earth Materials and Plate Tectonics, MONA STUDENTS ONLY","hours":"2 hours","room":"PLD","location":"PHYSICS LAB DOWN"},{"date":"12\/07\/2023","time":"9:00 am","code":"LAW6540","title":"Investor-State Arbitration","hours":"3 hours","room":"MSR1&2","location":"MANAGEMENT STUDIES"},{"date":"12\/07\/2023","time":"9:00 am","code":"MGMT3004","title":"Management of Quality","hours":"2 hours","room":"LR3","location":"ROY MARSHALL BUILDING"},{"date":"12\/07\/2023","time":"9:00 am","code":"MGMT3024","title":"Business Communications (AGARD - TOPPIN)","hours":"2 hours","room":"LR1&2","location":"ROY MARSHALL BUILDING"},{"date":"12\/07\/2023","time":"9:00 am","code":"MGMT3024","title":"Business Communications (TROTMAN - YARDE)","hours":"2 hours","room":"LR3","location":"ROY MARSHALL BUILDING"},{"date":"12\/07\/2023","time":"9:00 am","code":"MGMT3091","title":"Creativity and Innovation Management for Entrepreneurship","hours":"2 hours","room":"PLD","location":"PHYSICS LAB DOWN"},{"date":"12\/07\/2023","time":"1:00 pm","code":"LAW3645","title":"Commonwealth Caribbean Sports Law","hours":"2 hours","room":"LR4","location":"ROY MARSHALL BUILDING"},{"date":"12\/07\/2023","time":"1:00 pm","code":"MENG6700","title":"Strategic Asset Management, ST. AUGUSTINE STUDENTS ONLY","hours":"2 hours","room":"LR3","location":"ROY MARSHALL BUILDING"},{"date":"12\/07\/2023","time":"1:00 pm","code":"MGMT3049","title":"Financial Institutions and Markets (ABSALOM - LEWIS)","hours":"2 hours","room":"LR1&2","location":"ROY MARSHALL BUILDING"},{"date":"12\/07\/2023","time":"1:00 pm","code":"MGMT3049","title":"Financial Institutions and Markets (LINTON - YEARWOOD)","hours":"2 hours","room":"LR3","location":"ROY MARSHALL BUILDING"},{"date":"12\/07\/2023","time":"4:00 pm","code":"ECON2025","title":"Statistical Methods I","hours":"2 hours","room":"LR1&2","location":"ROY MARSHALL BUILDING"},{"date":"12\/07\/2023","time":"4:00 pm","code":"EDRS2201","title":"Introduction to Research Methods in Education","hours":"2 hours","room":"LR3","location":"ROY MARSHALL BUILDING"},{"date":"12\/07\/2023","time":"4:00 pm","code":"FOUN1301","title":"Law, Governance, Society and Economy in the Caribbean (ALI - MILLINGTON)","hours":"2 hours","room":"LR14","location":"SAGICOR BUILDING"},{"date":"12\/07\/2023","time":"4:00 pm","code":"FOUN1301","title":"Law, Governance, Society and Economy in the Caribbean (MORRIS - YOUNG)","hours":"2 hours","room":"LR13","location":"SAGICOR BUILDING"},{"date":"12\/07\/2023","time":"4:00 pm","code":"HIST3304","title":"Liberation Struggle in Twentieth Century Africa","hours":"2 hours","room":"S7","location":"SOCIAL SCIENCES"},{"date":"12\/07\/2023","time":"4:00 pm","code":"PSYC1008","title":"Intro to Sports Psychology","hours":"2 hours","room":"LR4","location":"ROY MARSHALL BUILDING"},{"date":"12\/07\/2023","time":"4:00 pm","code":"PSYC3066","title":"Psychology of Human Spirituality: A Transpersonal Approach","hours":"2 hours","room":"S7","location":"SOCIAL SCIENCES"},{"date":"12\/07\/2023","time":"4:00 pm","code":"SOCI2006","title":"Qualitative Methods in Sociological Research (ABSALOM - HINDS)","hours":"2 hours","room":"LR7","location":"CLICO BUILDING"},{"date":"12\/07\/2023","time":"4:00 pm","code":"SOCI2006","title":"Qualitative Methods in Sociological Research (HOLDER - WORRELL)","hours":"2 hours","room":"LR8","location":"CLICO BUILDING"},{"date":"12\/07\/2023","time":"4:00 pm","code":"TOUR3000","title":"Tourism Management","hours":"2 hours","room":"S6","location":"SOCIAL SCIENCES"},{"date":"12\/08\/2023","time":"9:00 am","code":"ACCT6019","title":"Multi Jurisdictional Tax Planning","hours":"3 hours","room":"LR3","location":"ROY MARSHALL BUILDING"},{"date":"12\/08\/2023","time":"9:00 am","code":"BIOL1025","title":"Diversity of Life II (ABAN - RILEY)","hours":"2 hours","room":"LR14","location":"SAGICOR BUILDING"},{"date":"12\/08\/2023","time":"9:00 am","code":"BIOL1025","title":"Diversity of Life II (ROACH - WOODROFFE)","hours":"2 hours","room":"LR13","location":"SAGICOR BUILDING"},{"date":"12\/08\/2023","time":"9:00 am","code":"ECON6044","title":"Financial Markets and Institutions","hours":"3 hours","room":"LR1&2","location":"ROY MARSHALL BUILDING"},{"date":"12\/08\/2023","time":"9:00 am","code":"IMCC6160","title":"Advertising, Media Analysis and Planning, MONA STUDENTS ONLY","hours":"3 hours","room":"LR3","location":"ROY MARSHALL BUILDING"},{"date":"12\/08\/2023","time":"9:00 am","code":"LAW6600","title":"Advanced Caribbean Integration Law","hours":"3 hours","room":"LR1&2","location":"ROY MARSHALL BUILDING"},{"date":"12\/08\/2023","time":"9:00 am","code":"LGSC6003","title":"Operations Research I","hours":"3 hours","room":"LR1&2","location":"ROY MARSHALL BUILDING"},{"date":"12\/08\/2023","time":"9:00 am","code":"PBHE6300","title":"Family Health I","hours":"3 hours","room":"LR1&2","location":"ROY MARSHALL BUILDING"},{"date":"12\/08\/2023","time":"9:00 am","code":"PBHE6500","title":"Primary Health Care","hours":"3 hours","room":"LR1&2","location":"ROY MARSHALL BUILDING"},{"date":"12\/08\/2023","time":"9:00 am","code":"PENU6003","title":"Care of the Sick Child 1","hours":"3 hours","room":"LR3","location":"ROY MARSHALL BUILDING"},{"date":"12\/08\/2023","time":"9:00 am","code":"PSYC6220","title":"Psychometrics I: Intellectual and Cognitive Abilities","hours":"3 hours","room":"LR3","location":"ROY MARSHALL BUILDING"},{"date":"12\/08\/2023","time":"9:00 am","code":"THEO1013","title":"Ancient Greek and Early Roman Philosophy","hours":"2 hours","room":"LR13","location":"SAGICOR BUILDING"},{"date":"12\/08\/2023","time":"9:00 am","code":"THEO2025","title":"The Canonical Gospels","hours":"2 hours","room":"LR13","location":"SAGICOR BUILDING"},{"date":"12\/08\/2023","time":"1:00 pm","code":"ENSC3005","title":"Urban Geomorphology","hours":"2 hours","room":"S6","location":"SOCIAL SCIENCES"},{"date":"12\/08\/2023","time":"1:00 pm","code":"HIST1703","title":"Introduction to History","hours":"2 hours","room":"S6","location":"SOCIAL SCIENCES"},{"date":"12\/08\/2023","time":"1:00 pm","code":"MATH1190","title":"Calculus A (ALLEN - BRATHWAITE)","hours":"2 hours","room":"PLD*","location":"PHYSICS LAB DOWN"},{"date":"12\/08\/2023","time":"1:00 pm","code":"MATH1190","title":"Calculus A (BROWNE - YEARWOOD)","hours":"2 hours","room":"PLU","location":"PHYSICS LAB UP"},{"date":"12\/08\/2023","time":"1:00 pm","code":"MENG6701","title":"Asset Maintenance Technologies, ST. AUGUSTINE STUDENTS ONLY","hours":"2 hours","room":"S6","location":"SOCIAL SCIENCES"},{"date":"12\/08\/2023","time":"1:00 pm","code":"MGMT2008","title":"Organisational Behaviour (ALLEYNE - CHOTHIA)","hours":"2 hours","room":"LR3","location":"ROY MARSHALL BUILDING"},{"date":"12\/08\/2023","time":"1:00 pm","code":"MGMT2008","title":"Organisational Behaviour (CLARKE to KING-BABB)","hours":"2 hours","room":"LR1&2","location":"ROY MARSHALL BUILDING"},{"date":"12\/08\/2023","time":"1:00 pm","code":"MGMT2008","title":"Organisational Behaviour (KISSUN - PREMPEH)","hours":"2 hours","room":"PLD*","location":"PHYSICS LAB DOWN"},{"date":"12\/08\/2023","time":"1:00 pm","code":"MGMT2008","title":"Organisational Behaviour (PRESCOD - ZAMORE)","hours":"2 hours","room":"LR4","location":"ROY MARSHALL BUILDING"},{"date":"12\/08\/2023","time":"2:00 pm","code":"LIBS6901","title":"Trends & Issues in Library & Information Work, MONA STUDENTS ONLY","hours":"3 hours","room":"S7","location":"SOCIAL SCIENCES"},{"date":"12\/08\/2023","time":"4:00 pm","code":"ECON0101","title":"Preliminary Mathematics for Social Sciences","hours":"2 hours","room":"LR1&2","location":"ROY MARSHALL BUILDING"},{"date":"12\/08\/2023","time":"4:00 pm","code":"HIST1004","title":"Introductory History of the Caribbean","hours":"2 hours","room":"PLD","location":"PHYSICS LAB DOWN"},{"date":"12\/08\/2023","time":"4:00 pm","code":"HNDT3002","title":"Nutrition Counselling and Communication Skills","hours":"2 hours","room":"LR13","location":"SAGICOR BUILDING"},{"date":"12\/08\/2023","time":"4:00 pm","code":"LAW2010","title":"Law of Torts II","hours":"2 hours","room":"LR14","location":"SAGICOR BUILDING"},{"date":"12\/08\/2023","time":"4:00 pm","code":"LAW3850","title":"Public Law Remedies","hours":"2 hours","room":"LR13","location":"SAGICOR BUILDING"},{"date":"12\/08\/2023","time":"4:00 pm","code":"MGMT3017","title":"Human Resources Management","hours":"2 hours","room":"LR11","location":"CLICO BUILDING"},{"date":"12\/08\/2023","time":"4:00 pm","code":"MUSC1010","title":"Introduction to Critical Listening","hours":"2 hours","room":"TSR8","location":"SAGICOR BUILDING"},{"date":"12\/08\/2023","time":"4:00 pm","code":"PHIL3110","title":"Environmental Ethics","hours":"2 hours","room":"PLD","location":"PHYSICS LAB DOWN"},{"date":"12\/08\/2023","time":"4:00 pm","code":"SOCI3012","title":"Caribbean Social Planning","hours":"2 hours","room":"LR3","location":"ROY MARSHALL BUILDING"},{"date":"12\/08\/2023","time":"4:00 pm","code":"SWEN1002","title":"Computing in Society","hours":"2 hours","room":"LR4","location":"ROY MARSHALL BUILDING"},{"date":"12\/08\/2023","time":"4:00 pm","code":"SWEN2006","title":"Discrete Mathematics for Software Engineers","hours":"2 hours","room":"LR13","location":"SAGICOR BUILDING"},{"date":"12\/08\/2023","time":"4:00 pm","code":"THEA1000","title":"Introduction to Theatre","hours":"2 hours","room":"LR4","location":"ROY MARSHALL BUILDING"},{"date":"12\/11\/2023","time":"9:00 am","code":"ACCT6032","title":"Advanced Audit and Assurance","hours":"3 hours","room":"LR3","location":"ROY MARSHALL BUILDING"},{"date":"12\/11\/2023","time":"9:00 am","code":"EDLS6401","title":"Language and Literacy Development and Instruction","hours":"3 hours","room":"LR3","location":"ROY MARSHALL BUILDING"},{"date":"12\/11\/2023","time":"9:00 am","code":"LAW2010","title":"Law of Torts 2, MONA STUDENTS ONLY","hours":"2 hours","room":"S6","location":"SOCIAL SCIENCES"},{"date":"12\/11\/2023","time":"9:00 am","code":"LAW6010","title":"Banking Law","hours":"3 hours","room":"LR3","location":"ROY MARSHALL BUILDING"},{"date":"12\/11\/2023","time":"9:00 am","code":"MDSC3101","title":"Clinical Haematology","hours":"2 hours","room":"S6","location":"SOCIAL SCIENCES"},{"date":"12\/11\/2023","time":"9:00 am","code":"PHYS0070","title":"Preliminary Physics I","hours":"3 hours","room":"LR4","location":"ROY MARSHALL BUILDING"},{"date":"12\/11\/2023","time":"9:00 am","code":"PHYS3485","title":"Theory of Statistical Mechanics","hours":"2 hours","room":"PLD","location":"PHYSICS LAB DOWN"},{"date":"12\/11\/2023","time":"9:00 am","code":"SBCO6100","title":"Transformational Leadership and Management, MONA STUDENTS ONLY","hours":"3 hours","room":"LR4","location":"ROY MARSHALL BUILDING"},{"date":"12\/11\/2023","time":"9:00 am","code":"SBMA6025","title":"Pricing Strategy","hours":"3 hours","room":"LR3","location":"ROY MARSHALL BUILDING"},{"date":"12\/11\/2023","time":"9:00 am","code":"SPPT6106","title":"Exercise in Specific Condition, MONA STUDENTS ONLY","hours":"2 hours","room":"S6","location":"SOCIAL SCIENCES"},{"date":"12\/11\/2023","time":"9:00 am","code":"SWEN1004","title":"Mathematics for Software Engineers","hours":"2 hours","room":"PLD","location":"PHYSICS LAB DOWN"},{"date":"12\/11\/2023","time":"9:00 am","code":"SWEN2004","title":"Computer Organisation","hours":"2 hours","room":"S6","location":"SOCIAL SCIENCES"},{"date":"12\/11\/2023","time":"9:00 am","code":"THEO2404","title":"Comparative Religion","hours":"2 hours","room":"PLD","location":"PHYSICS LAB DOWN"},{"date":"12\/11\/2023","time":"9:00 am","code":"THEO3214","title":"Ascetical Theology","hours":"2 hours","room":"PLD","location":"PHYSICS LAB DOWN"},{"date":"12\/11\/2023","time":"1:00 pm","code":"CLTR2000","title":"Thinking Culture: Debates and Perspectives","hours":"2 hours","room":"S6","location":"SOCIAL SCIENCES"},{"date":"12\/11\/2023","time":"1:00 pm","code":"ECOL3463","title":"Tropic Crop Ecology","hours":"2 hours","room":"S6","location":"SOCIAL SCIENCES"},{"date":"12\/11\/2023","time":"1:00 pm","code":"GEOL1102","title":"Earth Science 2: Earth Processes and Earth History, MONA STUDENTS ONLY","hours":"2 hours","room":"S6","location":"SOCIAL SCIENCES"},{"date":"12\/11\/2023","time":"1:00 pm","code":"MGMT1001","title":"Introduction to Management (ABDOOL - BROME)","hours":"2 hours","room":"PLD","location":"PHYSICS LAB DOWN"},{"date":"12\/11\/2023","time":"1:00 pm","code":"MGMT1001","title":"Introduction to Management (BROWN - EDGHILL)","hours":"2 hours","room":"MSR1&2","location":"MANAGEMENT STUDIES"},{"date":"12\/11\/2023","time":"1:00 pm","code":"MGMT1001","title":"Introduction to Management (EDWARDS - HARVEY)","hours":"2 hours","room":"PLU","location":"PHYSICS LAB UP"},{"date":"12\/11\/2023","time":"1:00 pm","code":"MGMT1001","title":"Introduction to Management (HAYNES - LOPEZ)","hours":"2 hours","room":"LR3","location":"ROY MARSHALL BUILDING"},{"date":"12\/11\/2023","time":"1:00 pm","code":"MGMT1001","title":"Introduction to Management (LORD - PRESCOD)","hours":"2 hours","room":"LR4","location":"ROY MARSHALL BUILDING"},{"date":"12\/11\/2023","time":"1:00 pm","code":"MGMT1001","title":"Introduction to Management (PRICE - YEARWOOD)","hours":"2 hours","room":"LR1&2","location":"ROY MARSHALL BUILDING"},{"date":"12\/11\/2023","time":"2:00 pm","code":"AHAC5101","title":"Introduction to Adolescent Health, MONA STUDENTS ONLY","hours":"3 hours","room":"S7","location":"SOCIAL SCIENCES"},{"date":"12\/11\/2023","time":"4:00 pm","code":"COMP2225","title":"Software Engineering","hours":"2 hours","room":"LR7","location":"CLICO BUILDING"},{"date":"12\/11\/2023","time":"4:00 pm","code":"ECON3029","title":"Labour Economics","hours":"2 hours","room":"LR4","location":"ROY MARSHALL BUILDING"},{"date":"12\/11\/2023","time":"4:00 pm","code":"EDME2211","title":"Testing, Measurement and Evaluation I","hours":"2 hours","room":"LR1&2","location":"ROY MARSHALL BUILDING"},{"date":"12\/11\/2023","time":"4:00 pm","code":"LAW3110","title":"Company Law","hours":"2 hours","room":"LR14","location":"SAGICOR BUILDING"},{"date":"12\/11\/2023","time":"4:00 pm","code":"MGMT2224","title":"Introduction to Entrepreneurship","hours":"2 hours","room":"LR11","location":"CLICO BUILDING"},{"date":"12\/11\/2023","time":"4:00 pm","code":"SOCI2000","title":"Classical Social Theory","hours":"2 hours","room":"LR3","location":"ROY MARSHALL BUILDING"},{"date":"12\/11\/2023","time":"4:00 pm","code":"SOCI3036","title":"Criminology II: Police and Society","hours":"2 hours","room":"LR4","location":"ROY MARSHALL BUILDING"},{"date":"12\/12\/2023","time":"9:00 am","code":"ACCT6030","title":"Advanced Financial Management","hours":"3 hours","room":"S6","location":"SOCIAL SCIENCES"},{"date":"12\/12\/2023","time":"9:00 am","code":"ECON1001","title":"Introduction to Microeconomics (ABSALOM - CORBIN)","hours":"2 hours","room":"LR14","location":"SAGICOR BUILDING"},{"date":"12\/12\/2023","time":"9:00 am","code":"ECON1001","title":"Introduction to Microeconomics (COWARD - GOODING)","hours":"2 hours","room":"LR13","location":"SAGICOR BUILDING"},{"date":"12\/12\/2023","time":"9:00 am","code":"ECON1001","title":"Introduction to Microeconomics (GRAHAM - HUNTE)","hours":"2 hours","room":"LR6","location":"CLICO BUILDING"},{"date":"12\/12\/2023","time":"9:00 am","code":"ECON1001","title":"Introduction to Microeconomics (HURDLE - MITCHELL)","hours":"2 hours","room":"LR7","location":"CLICO BUILDING"},{"date":"12\/12\/2023","time":"9:00 am","code":"ECON1001","title":"Introduction to Microeconomics (MONIALL - SIMON)","hours":"2 hours","room":"LR8","location":"CLICO BUILDING"},{"date":"12\/12\/2023","time":"9:00 am","code":"ECON1001","title":"Introduction to Microeconomics (SKINNER - YOUNG)","hours":"2 hours","room":"LR9","location":"CLICO BUILDING"},{"date":"12\/12\/2023","time":"9:00 am","code":"EDSC6613","title":"Learning and Teaching In Science","hours":"3 hours","room":"S6","location":"SOCIAL SCIENCES"},{"date":"12\/12\/2023","time":"9:00 am","code":"LIBS6106","title":"Management of Libraries and Information Units, MONA STUDENTS ONLY","hours":"3 hours","room":"S6","location":"SOCIAL SCIENCES"},{"date":"12\/12\/2023","time":"9:00 am","code":"SPSF6001","title":"Upper Body Injuries, MONA STUDENTS ONLY","hours":"3 hours","room":"S6","location":"SOCIAL SCIENCES"},{"date":"12\/12\/2023","time":"1:00 pm","code":"HESC3003","title":"Environmental Health","hours":"2 hours","room":"LR3","location":"ROY MARSHALL BUILDING"},{"date":"12\/12\/2023","time":"1:00 pm","code":"HUMN1001","title":"Critical Foundation in Arts","hours":"2 hours","room":"LR3","location":"ROY MARSHALL BUILDING"},{"date":"12\/12\/2023","time":"1:00 pm","code":"SPSC3009","title":"Sport Policy and Development","hours":"2 hours","room":"LR4","location":"ROY MARSHALL BUILDING"},{"date":"12\/12\/2023","time":"1:00 pm","code":"SWEN1000","title":"An Introduction to Computing I","hours":"2 hours","room":"LR4","location":"ROY MARSHALL BUILDING"},{"date":"12\/12\/2023","time":"2:00 pm","code":"AHAC5102","title":"Public Health Policy in the Caribbean, MONA STUDENTS ONLY","hours":"3 hours","room":"MSSR1","location":"MANAGEMENT STUDIES"},{"date":"12\/12\/2023","time":"4:00 pm","code":"ACCT2019","title":"Accounting for Managers","hours":"2 hours","room":"LR4","location":"ROY MARSHALL BUILDING"},{"date":"12\/12\/2023","time":"4:00 pm","code":"ECON3049","title":"Econometrics I","hours":"2 hours","room":"LR3","location":"ROY MARSHALL BUILDING"},{"date":"12\/12\/2023","time":"4:00 pm","code":"ELET1220","title":"Introduction to Electronics","hours":"2 hours","room":"PLD","location":"PHYSICS LAB DOWN"},{"date":"12\/12\/2023","time":"4:00 pm","code":"GOVT2062","title":"Introduction to International Security","hours":"2 hours","room":"LR6","location":"CLICO BUILDING"},{"date":"12\/12\/2023","time":"4:00 pm","code":"HIST2003","title":"History of the West Indies I, 1700","hours":"2 hours","room":"LR3","location":"ROY MARSHALL BUILDING"},{"date":"12\/12\/2023","time":"4:00 pm","code":"LAW2110","title":"Law of Contract II","hours":"2 hours","room":"LR14","location":"SAGICOR BUILDING"},{"date":"12\/12\/2023","time":"4:00 pm","code":"LAW3840","title":"Alternative Disputes Resolution","hours":"2 hours","room":"MSR1&2","location":"MANAGEMENT STUDIES"},{"date":"12\/12\/2023","time":"4:00 pm","code":"MICR2260","title":"Essential Microbiology","hours":"2 hours","room":"LR10","location":"CLICO BUILDING"},{"date":"12\/12\/2023","time":"4:00 pm","code":"PSYC1003","title":"Introduction to Psychology (ADAMS - BOYCE)","hours":"2 hours","room":"LR6","location":"CLICO BUILDING"},{"date":"12\/12\/2023","time":"4:00 pm","code":"PSYC1003","title":"Introduction to Psychology (BRATHWAITE - HACKETT)","hours":"2 hours","room":"LR7","location":"CLICO BUILDING"},{"date":"12\/12\/2023","time":"4:00 pm","code":"PSYC1003","title":"Introduction to Psychology (HALL - ODLE)","hours":"2 hours","room":"LR8","location":"CLICO BUILDING"},{"date":"12\/12\/2023","time":"4:00 pm","code":"PSYC1003","title":"Introduction to Psychology (OGUNKOLA - YEARWOOD)","hours":"2 hours","room":"LR9","location":"CLICO BUILDING"},{"date":"12\/12\/2023","time":"4:00 pm","code":"PSYC2004","title":"Personality Psychology","hours":"2 hours","room":"LR1&2","location":"ROY MARSHALL BUILDING"},{"date":"12\/13\/2023","time":"9:00 am","code":"ACCT6029","title":"Strategic Business Leader","hours":"3 hours","room":"LR3","location":"ROY MARSHALL BUILDING"},{"date":"12\/13\/2023","time":"9:00 am","code":"BUAD6003","title":"Marketing Management, ST. AUGUSTINE STUDENTS ONLY","hours":"3 hours","room":"LR3","location":"ROY MARSHALL BUILDING"},{"date":"12\/13\/2023","time":"9:00 am","code":"ECON6030","title":"Microeconomic Theory","hours":"3 hours","room":"LR3","location":"ROY MARSHALL BUILDING"},{"date":"12\/13\/2023","time":"9:00 am","code":"EDSC6704","title":"Trends in Curriculum Development in Science & Technology Education","hours":"3 hours","room":"LR3","location":"ROY MARSHALL BUILDING"},{"date":"12\/13\/2023","time":"9:00 am","code":"LAER6002","title":"Caribbean and International Labour","hours":"3 hours","room":"LR4","location":"ROY MARSHALL BUILDING"},{"date":"12\/13\/2023","time":"9:00 am","code":"PBHE6100","title":"Biostatistics","hours":"3 hours","room":"LR4","location":"ROY MARSHALL BUILDING"},{"date":"12\/13\/2023","time":"9:00 am","code":"THEO2115","title":"History of the Church from the Reformation to the Present","hours":"2 hours","room":"S6","location":"SOCIAL SCIENCES"},{"date":"12\/13\/2023","time":"9:00 am","code":"THEO3004","title":"Theology of Deuteronomy and the Deuteronomic History","hours":"2 hours","room":"S6","location":"SOCIAL SCIENCES"},{"date":"12\/13\/2023","time":"9:00 am","code":"TOUR6030","title":"Tourism Destination Management","hours":"3 hours","room":"LR4","location":"ROY MARSHALL BUILDING"},{"date":"12\/13\/2023","time":"1:00 pm","code":"CHEM2705","title":"Intermediate Organic Chemistry","hours":"2 hours","room":"PLU","location":"PHYSICS LAB UP"},{"date":"12\/13\/2023","time":"1:00 pm","code":"MGMT2021","title":"Business Law I (AGARD - LINTON)","hours":"2 hours","room":"LR1&2","location":"ROY MARSHALL BUILDING"},{"date":"12\/13\/2023","time":"1:00 pm","code":"MGMT2021","title":"Business Law I (LOWE - ZAMORE)","hours":"2 hours","room":"PLD","location":"PHYSICS LAB DOWN"},{"date":"12\/13\/2023","time":"4:00 pm","code":"CHEM1110","title":"Introduction to Organic Chemistry","hours":"2 hours","room":"LR14","location":"SAGICOR BUILDING"},{"date":"12\/13\/2023","time":"4:00 pm","code":"COMP2611","title":"Data Structures","hours":"2 hours","room":"LR6","location":"CLICO BUILDING"},{"date":"12\/13\/2023","time":"4:00 pm","code":"ECOL3461","title":"Ecology of a Changing Planet","hours":"2 hours","room":"LR13","location":"SAGICOR BUILDING"},{"date":"12\/13\/2023","time":"4:00 pm","code":"EDPS1001","title":"Introduction to Human Development","hours":"2 hours","room":"LR3","location":"ROY MARSHALL BUILDING"},{"date":"12\/13\/2023","time":"4:00 pm","code":"ELET1205","title":"Computer Aided Design","hours":"2 hours","room":"LR9","location":"CLICO BUILDING"},{"date":"12\/13\/2023","time":"4:00 pm","code":"ELET1210","title":"Digital Electronics I","hours":"2 hours","room":"LR10","location":"CLICO BUILDING"},{"date":"12\/13\/2023","time":"4:00 pm","code":"FINA2005","title":"Risk Analysis and Management","hours":"2 hours","room":"PLD","location":"PHYSICS LAB DOWN"},{"date":"12\/13\/2023","time":"4:00 pm","code":"HIST2602","title":"Imperialism since 1918","hours":"2 hours","room":"LR4","location":"ROY MARSHALL BUILDING"},{"date":"12\/13\/2023","time":"4:00 pm","code":"LAW3760","title":"Intellectual Property","hours":"2 hours","room":"LR1&2","location":"ROY MARSHALL BUILDING"},{"date":"12\/13\/2023","time":"4:00 pm","code":"PHIL3510","title":"Philosophy of Sex and Love","hours":"2 hours","room":"LR4","location":"ROY MARSHALL BUILDING"},{"date":"12\/13\/2023","time":"4:00 pm","code":"PHYS2410","title":"Modern Physics","hours":"2 hours","room":"LR10","location":"CLICO BUILDING"},{"date":"12\/13\/2023","time":"4:00 pm","code":"SOCI1000","title":"Introduction to Sociology II (ALEXANDER - GRIFFITH)","hours":"2 hours","room":"LR7","location":"CLICO BUILDING"},{"date":"12\/13\/2023","time":"4:00 pm","code":"SOCI1000","title":"Introduction to Sociology II (GUNN - SOBERS)","hours":"2 hours","room":"LR8","location":"CLICO BUILDING"},{"date":"12\/13\/2023","time":"4:00 pm","code":"SOCI1000","title":"Introduction to Sociology II (SOUDATT - YOUNG)","hours":"2 hours","room":"LR9","location":"CLICO BUILDING"},{"date":"12\/13\/2023","time":"4:00 pm","code":"SOCI3027","title":"Gender and Development","hours":"2 hours","room":"LR4","location":"ROY MARSHALL BUILDING"},{"date":"12\/13\/2023","time":"4:00 pm","code":"SOWK1000","title":"Human Behaviour","hours":"2 hours","room":"LR13","location":"SAGICOR BUILDING"},{"date":"12\/13\/2023","time":"4:00 pm","code":"SOWK3031","title":"Bio-Psychosocial Challenges of HIV\/ AIDS","hours":"2 hours","room":"LR13","location":"SAGICOR BUILDING"},{"date":"12\/14\/2023","time":"9:00 am","code":"ACCT6028","title":"Strategic Business Reporting","hours":"3 hours","room":"LR13","location":"SAGICOR BUILDING"},{"date":"12\/14\/2023","time":"9:00 am","code":"AGLS6001","title":"Tropical Animal Science, ST. AUGUSTINE  STUDENTS ONLY","hours":"3 hours","room":"LR13","location":"SAGICOR BUILDING"},{"date":"12\/14\/2023","time":"9:00 am","code":"COMP3330","title":"Database Management Systems I","hours":"2 hours","room":"LR1&2","location":"ROY MARSHALL BUILDING"},{"date":"12\/14\/2023","time":"9:00 am","code":"EDCU6310","title":"Curriculum Policy and Planning, MONA STUDENTS ONLY","hours":"3 hours","room":"LR13","location":"SAGICOR BUILDING"},{"date":"12\/14\/2023","time":"9:00 am","code":"EDLE6000","title":"Fundamentals of Educational Administration & Organisational Behaviour","hours":"3 hours","room":"LR13","location":"SAGICOR BUILDING"},{"date":"12\/14\/2023","time":"9:00 am","code":"ENSC2005","title":"Earth-Life Cycles","hours":"2 hours","room":"LR3","location":"ROY MARSHALL BUILDING"},{"date":"12\/14\/2023","time":"9:00 am","code":"LAW2210","title":"Real Property 1, MONA STUDENTS ONLY","hours":"2 hours","room":"LR1&2","location":"ROY MARSHALL BUILDING"},{"date":"12\/14\/2023","time":"9:00 am","code":"LAW6201","title":"Copyright Law (The Protection of Creative Assets)","hours":"3 hours","room":"LR13","location":"SAGICOR BUILDING"},{"date":"12\/14\/2023","time":"9:00 am","code":"MATH0100","title":"Pre-Calculus","hours":"3 hours","room":"LR14","location":"SAGICOR BUILDING"},{"date":"12\/14\/2023","time":"9:00 am","code":"SPSF6004","title":"Exercise Physiology, MONA STUDENTS ONLY","hours":"3 hours","room":"LR13","location":"SAGICOR BUILDING"},{"date":"12\/14\/2023","time":"9:00 am","code":"THEO1115","title":"History of the Early Church to the Medieval Period: The First to the Fifteenth Century","hours":"2 hours","room":"LR3","location":"ROY MARSHALL BUILDING"},{"date":"12\/14\/2023","time":"9:00 am","code":"THEO2228","title":"Baptism and the Eucharist","hours":"2 hours","room":"LR3","location":"ROY MARSHALL BUILDING"},{"date":"12\/14\/2023","time":"1:00 pm","code":"MGMT2012","title":"Quantitative Methods (AGARD - HACKETT)","hours":"2 hours","room":"LR4","location":"ROY MARSHALL BUILDING"},{"date":"12\/14\/2023","time":"1:00 pm","code":"MGMT2012","title":"Quantitative Methods (HALL - WOODROFFE)","hours":"2 hours","room":"LR1&2","location":"ROY MARSHALL BUILDING"},{"date":"12\/14\/2023","time":"2:00 pm","code":"AHAC5103","title":"Sexuality and Behaviour, MONA STUDENTS ONLY","hours":"3 hours","room":"MSSR1","location":"MANAGEMENT STUDIES"},{"date":"12\/14\/2023","time":"4:00 pm","code":"BIOC3265","title":"Principles of Bioinformatics","hours":"2 hours","room":"LR7","location":"CLICO BUILDING"},{"date":"12\/14\/2023","time":"4:00 pm","code":"CHEM2700","title":"Intermediate Inorganic Chemistry","hours":"2 hours","room":"LR7","location":"CLICO BUILDING"},{"date":"12\/14\/2023","time":"4:00 pm","code":"COMP2235","title":"Networks I","hours":"2 hours","room":"PLU","location":"PHYSICS LAB UP"},{"date":"12\/14\/2023","time":"4:00 pm","code":"COMP3360","title":"Networks II","hours":"2 hours","room":"PLD","location":"PHYSICS LAB DOWN"},{"date":"12\/14\/2023","time":"4:00 pm","code":"ECOL2461","title":"Caribbean Island Biodiversity","hours":"2 hours","room":"LR8","location":"CLICO BUILDING"},{"date":"12\/14\/2023","time":"4:00 pm","code":"ECON2000","title":"Intermediate Micro-Economics I","hours":"2 hours","room":"LR11","location":"CLICO BUILDING"},{"date":"12\/14\/2023","time":"4:00 pm","code":"FOUN1301","title":"Law, Governance, Economy and Society in \r\nthe Caribbean, MONA STUDENTS ONLY","hours":"2 hours","room":"LR9","location":"CLICO BUILDING"},{"date":"12\/14\/2023","time":"4:00 pm","code":"GOVT2010","title":"Politics of Developing Nations","hours":"2 hours","room":"LR6","location":"CLICO BUILDING"},{"date":"12\/14\/2023","time":"4:00 pm","code":"GOVT3076","title":"International Development in Global Politics","hours":"2 hours","room":"LR6","location":"CLICO BUILDING"},{"date":"12\/14\/2023","time":"4:00 pm","code":"LAW1010","title":"Law and Legal Systems (ABEL - KNIGHT)","hours":"2 hours","room":"LR1&2","location":"ROY MARSHALL BUILDING"},{"date":"12\/14\/2023","time":"4:00 pm","code":"LAW1010","title":"Law and Legal Systems (LAMB - YARDE)","hours":"2 hours","room":"LR3","location":"ROY MARSHALL BUILDING"},{"date":"12\/14\/2023","time":"4:00 pm","code":"LAW3170","title":"Law of Trusts","hours":"2 hours","room":"LR9","location":"CLICO BUILDING"},{"date":"12\/14\/2023","time":"4:00 pm","code":"MATH1141","title":"Introductory Linear Algebra and Analytical  Geometry","hours":"2 hours","room":"LR8","location":"CLICO BUILDING"},{"date":"12\/14\/2023","time":"4:00 pm","code":"MGMT3027","title":"Sports Marketing and Public Relations","hours":"2 hours","room":"LR9","location":"CLICO BUILDING"},{"date":"12\/14\/2023","time":"4:00 pm","code":"PHIL1003","title":"Introduction to Philosophy","hours":"2 hours","room":"LR10","location":"CLICO BUILDING"},{"date":"12\/14\/2023","time":"4:00 pm","code":"PHYS3455","title":"Lasers and Optical Systems","hours":"2 hours","room":"PLD","location":"PHYSICS LAB DOWN"},{"date":"12\/14\/2023","time":"4:00 pm","code":"PSYC3014","title":"Industrial and Organizational Psychology","hours":"2 hours","room":"LR4","location":"ROY MARSHALL BUILDING"},{"date":"12\/15\/2023","time":"9:00 am","code":"ACCT6037","title":"Investment Analysis","hours":"3 hours","room":"LR1&2","location":"ROY MARSHALL BUILDING"},{"date":"12\/15\/2023","time":"9:00 am","code":"BUAD6002","title":"Cost Accounting & Fin. Management, ST. AUGUSTINE STUDENTS ONLY","hours":"3 hours","room":"LR3","location":"ROY MARSHALL BUILDING"},{"date":"12\/15\/2023","time":"9:00 am","code":"ECON2002","title":"Intermediate Macro-Economics I","hours":"2 hours","room":"LR11","location":"CLICO BUILDING"},{"date":"12\/15\/2023","time":"9:00 am","code":"ECON6050","title":"Mathematical Methods","hours":"3 hours","room":"LR1&2","location":"ROY MARSHALL BUILDING"},{"date":"12\/15\/2023","time":"9:00 am","code":"EDLE6001","title":"Effective Leadership in Education","hours":"3 hours","room":"LR1&2","location":"ROY MARSHALL BUILDING"},{"date":"12\/15\/2023","time":"9:00 am","code":"FOUN0100","title":"Fundamentals of Written English (AGARD - NASH)","hours":"2 hours","room":"LR14","location":"SAGICOR BUILDING"},{"date":"12\/15\/2023","time":"9:00 am","code":"FOUN0100","title":"Fundamentals of Written English (NICHOLLS - WORRELL)","hours":"2 hours","room":"LR13","location":"SAGICOR BUILDING"},{"date":"12\/15\/2023","time":"9:00 am","code":"LAER6003","title":"Collective Bargaining and Disputes","hours":"3 hours","room":"LR3","location":"ROY MARSHALL BUILDING"},{"date":"12\/15\/2023","time":"9:00 am","code":"PBHE6200","title":"Epidemiology I","hours":"3 hours","room":"LR3","location":"ROY MARSHALL BUILDING"},{"date":"12\/15\/2023","time":"9:00 am","code":"PENU6000","title":"Theoretical Perspectives in Paediatric Nursing","hours":"3 hours","room":"LR3","location":"ROY MARSHALL BUILDING"},{"date":"12\/15\/2023","time":"9:00 am","code":"SPKN6340","title":"Kinetics and Upper Body Sport Injuries, MONA STUDENTS ONLY","hours":"2 hours","room":"LR11","location":"CLICO BUILDING"},{"date":"12\/15\/2023","time":"9:00 am","code":"SPSC6003","title":"Sport Management and Marketing","hours":"3 hours","room":"LR1&2","location":"ROY MARSHALL BUILDING"},{"date":"12\/15\/2023","time":"9:00 am","code":"THEO2203","title":"Introduction to Pastoral Care and Counselling Pastoral Studies","hours":"2 hours","room":"LR13","location":"SAGICOR BUILDING"},{"date":"12\/15\/2023","time":"9:00 am","code":"TOUR6130","title":"Sports and Events Management","hours":"3 hours","room":"LR1&2","location":"ROY MARSHALL BUILDING"},{"date":"12\/15\/2023","time":"1:00 pm","code":"LAW2210","title":"Law of Real Property I (ABAN - RAMSEY)","hours":"2 hours","room":"LR1&2","location":"ROY MARSHALL BUILDING"},{"date":"12\/15\/2023","time":"1:00 pm","code":"LAW2210","title":"Law of Real Property I (REEVES - WRIGHT)","hours":"2 hours","room":"LR3","location":"ROY MARSHALL BUILDING"},{"date":"12\/15\/2023","time":"1:00 pm","code":"MDSC1103","title":"Introduction to General Embryology & Histology","hours":"2 hours","room":"LR4","location":"ROY MARSHALL BUILDING"},{"date":"12\/15\/2023","time":"1:00 pm","code":"MICR3268","title":"Microbial Pathogenesis","hours":"2 hours","room":"LR3","location":"ROY MARSHALL BUILDING"},{"date":"12\/15\/2023","time":"2:00 pm","code":"LIBS6301","title":"Bibliography and Reference Methods and Materials, MONA STUDENTS ONLY","hours":"3 hours","room":"MSSR1","location":"MANAGEMENT STUDIES"},{"date":"12\/15\/2023","time":"4:00 pm","code":"BIOL2370","title":"Flowering Plant Physiology","hours":"2 hours","room":"LR6","location":"CLICO BUILDING"},{"date":"12\/15\/2023","time":"4:00 pm","code":"COMP1180","title":"Mathematics for Computer Science I","hours":"2 hours","room":"LR14","location":"SAGICOR BUILDING"},{"date":"12\/15\/2023","time":"4:00 pm","code":"COMP3320","title":"Design Principles of Operating Systems","hours":"2 hours","room":"LR7","location":"CLICO BUILDING"},{"date":"12\/15\/2023","time":"4:00 pm","code":"EDEC2000","title":"Fundamentals of Early Childhood Care and Education","hours":"2 hours","room":"LR3","location":"ROY MARSHALL BUILDING"},{"date":"12\/15\/2023","time":"4:00 pm","code":"ELET2230","title":"Digital Communication Systems I","hours":"2 hours","room":"LR6","location":"CLICO BUILDING"},{"date":"12\/15\/2023","time":"4:00 pm","code":"FINA2003","title":"Information Technology for Banking & Finance","hours":"2 hours","room":"PLD","location":"PHYSICS LAB DOWN"},{"date":"12\/15\/2023","time":"4:00 pm","code":"GEND3701","title":"Men and Masculinities in the Caribbean","hours":"2 hours","room":"LR8","location":"CLICO BUILDING"},{"date":"12\/15\/2023","time":"4:00 pm","code":"HIST2610","title":"History of Medicine in the Caribbean","hours":"2 hours","room":"LR4","location":"ROY MARSHALL BUILDING"},{"date":"12\/15\/2023","time":"4:00 pm","code":"MATH3550","title":"Real Analysis 2","hours":"2 hours","room":"LR8","location":"CLICO BUILDING"},{"date":"12\/15\/2023","time":"4:00 pm","code":"METE2110","title":"Atmospheric Thermodynamics","hours":"2 hours","room":"LR6","location":"CLICO BUILDING"},{"date":"12\/15\/2023","time":"4:00 pm","code":"MGMT2020","title":"Managerial Economics","hours":"2 hours","room":"LR1&2","location":"ROY MARSHALL BUILDING"},{"date":"12\/15\/2023","time":"4:00 pm","code":"PSYC3008","title":"Elements of Counselling and Psychotherapy","hours":"2 hours","room":"LR4","location":"ROY MARSHALL BUILDING"},{"date":"12\/15\/2023","time":"4:00 pm","code":"SOCI1001","title":"Introduction to Social Research (ADAM - LEWIS)","hours":"2 hours","room":"LR11","location":"CLICO BUILDING"},{"date":"12\/15\/2023","time":"4:00 pm","code":"SOCI1001","title":"Introduction to Social Research (LORDE - WORRELL)","hours":"2 hours","room":"LR13","location":"SAGICOR BUILDING"},{"date":"12\/15\/2023","time":"4:00 pm","code":"SPSC2020","title":"Sociology of Sport","hours":"2 hours","room":"LR8","location":"CLICO BUILDING"},{"date":"12\/18\/2023","time":"9:00 am","code":"ACCT6017","title":"Quantitative Methods for Management","hours":"3 hours","room":"LR3","location":"ROY MARSHALL BUILDING"},{"date":"12\/18\/2023","time":"9:00 am","code":"ECON1003","title":"Mathematics for Social Sciences I (ABDOOL - GILL)","hours":"2 hours","room":"LR14","location":"SAGICOR BUILDING"},{"date":"12\/18\/2023","time":"9:00 am","code":"ECON1003","title":"Mathematics for Social Sciences I (GLASGOW - JOHN)","hours":"2 hours","room":"LR13","location":"SAGICOR BUILDING"},{"date":"12\/18\/2023","time":"9:00 am","code":"ECON1003","title":"Mathematics for Social Sciences I (JOHNNEY - MURRAY)","hours":"2 hours","room":"LR7","location":"CLICO BUILDING"},{"date":"12\/18\/2023","time":"9:00 am","code":"ECON1003","title":"Mathematics for Social Sciences I (MURRELL - SMALL)","hours":"2 hours","room":"LR8","location":"CLICO BUILDING"},{"date":"12\/18\/2023","time":"9:00 am","code":"ECON1003","title":"Mathematics for Social Sciences I (SOBERS - YEARWOOD)","hours":"2 hours","room":"LR9","location":"CLICO BUILDING"},{"date":"12\/18\/2023","time":"9:00 am","code":"EDME6201","title":"Introduction to Educational Measurement","hours":"3 hours","room":"LR4","location":"ROY MARSHALL BUILDING"},{"date":"12\/18\/2023","time":"9:00 am","code":"FINA6030","title":"Quantitative Methods","hours":"3 hours","room":"LR3","location":"ROY MARSHALL BUILDING"},{"date":"12\/18\/2023","time":"9:00 am","code":"GEMA6315","title":"Quantitative Business Applications","hours":"3 hours","room":"LR3","location":"ROY MARSHALL BUILDING"},{"date":"12\/18\/2023","time":"9:00 am","code":"INBA6010","title":"Quantitative Business Analysis","hours":"3 hours","room":"LR3","location":"ROY MARSHALL BUILDING"},{"date":"12\/18\/2023","time":"9:00 am","code":"LGSC6007","title":"Production Management","hours":"3 hours","room":"LR3","location":"ROY MARSHALL BUILDING"},{"date":"12\/18\/2023","time":"9:00 am","code":"MKTG6040","title":"Services Marketing","hours":"3 hours","room":"LR4","location":"ROY MARSHALL BUILDING"},{"date":"12\/18\/2023","time":"9:00 am","code":"PBHE6600","title":"Environmental Health","hours":"3 hours","room":"LR4","location":"ROY MARSHALL BUILDING"},{"date":"12\/18\/2023","time":"9:00 am","code":"PENU6002","title":"Paediatric Health Assessment","hours":"3 hours","room":"LR4","location":"ROY MARSHALL BUILDING"},{"date":"12\/18\/2023","time":"9:00 am","code":"SBCO6208","title":"Quantitative Methods and Statistical Management","hours":"3 hours","room":"LR3","location":"ROY MARSHALL BUILDING"},{"date":"12\/18\/2023","time":"9:00 am","code":"SPSC6009","title":"Leadership and Human Resource Management","hours":"3 hours","room":"LR4","location":"ROY MARSHALL BUILDING"},{"date":"12\/18\/2023","time":"1:00 pm","code":"COMP2232","title":"Object-Oriented Programming Concepts","hours":"2 hours","room":"PLD","location":"PHYSICS LAB DOWN"},{"date":"12\/18\/2023","time":"1:00 pm","code":"LAW1110","title":"Criminal Law I (ABEL - LOVELL)","hours":"2 hours","room":"LR1&2","location":"ROY MARSHALL BUILDING"},{"date":"12\/18\/2023","time":"1:00 pm","code":"LAW1110","title":"Criminal Law I (LOWE - YARDE)","hours":"2 hours","room":"LR3","location":"ROY MARSHALL BUILDING"},{"date":"12\/18\/2023","time":"1:00 pm","code":"LAW3460","title":"International Environmental Law","hours":"2 hours","room":"LR4","location":"ROY MARSHALL BUILDING"},{"date":"12\/18\/2023","time":"1:00 pm","code":"LAW6300","title":"Advanced Public International Law","hours":"3 hours","room":"S6","location":"SOCIAL SCIENCES"},{"date":"12\/18\/2023","time":"1:00 pm","code":"LAW6350","title":"Global Perspectives in Public Procurement","hours":"2 hours","room":"LR4","location":"ROY MARSHALL BUILDING"},{"date":"12\/18\/2023","time":"2:00 pm","code":"AHAC5104","title":"Risk and Resiliency, MONA STUDENTS ONLY","hours":"3 hours","room":"S7","location":"SOCIAL SCIENCES"},{"date":"12\/18\/2023","time":"4:00 pm","code":"CHEM3620","title":"Advanced Physical Chemistry","hours":"2 hours","room":"LR4","location":"ROY MARSHALL BUILDING"},{"date":"12\/18\/2023","time":"4:00 pm","code":"CLTR1010","title":"Intro to Caribbean Studies","hours":"2 hours","room":"LR8","location":"CLICO BUILDING"},{"date":"12\/18\/2023","time":"4:00 pm","code":"COMP1210","title":"Computing II","hours":"2 hours","room":"LR6","location":"CLICO BUILDING"},{"date":"12\/18\/2023","time":"4:00 pm","code":"ECOL2460","title":"Essentials of Ecology","hours":"2 hours","room":"LR1&2","location":"ROY MARSHALL BUILDING"},{"date":"12\/18\/2023","time":"4:00 pm","code":"ELET3230","title":"Essentials of Digital Signal Processing (DSP)","hours":"2 hours","room":"LR7","location":"CLICO BUILDING"},{"date":"12\/18\/2023","time":"4:00 pm","code":"FINA3001","title":"Caribbean Business Environment","hours":"2 hours","room":"LR3","location":"ROY MARSHALL BUILDING"},{"date":"12\/18\/2023","time":"4:00 pm","code":"GOVT3014","title":"Theories and Concepts of International Politics","hours":"2 hours","room":"LR4","location":"ROY MARSHALL BUILDING"},{"date":"12\/18\/2023","time":"4:00 pm","code":"HESC3007","title":"Nutrition Throughout the Life Cycle","hours":"2 hours","room":"LR4","location":"ROY MARSHALL BUILDING"},{"date":"12\/18\/2023","time":"4:00 pm","code":"MATH2315","title":"Linear Algebra 1","hours":"2 hours","room":"LR7","location":"CLICO BUILDING"},{"date":"12\/18\/2023","time":"4:00 pm","code":"MATH3543","title":"Abstract Algebra 2","hours":"2 hours","room":"LR7","location":"CLICO BUILDING"},{"date":"12\/18\/2023","time":"4:00 pm","code":"METE1130","title":"Introduction to Physical Meteorology","hours":"2 hours","room":"LR1&2","location":"ROY MARSHALL BUILDING"},{"date":"12\/18\/2023","time":"4:00 pm","code":"METE3110","title":"Advanced Dynamic Meteorology","hours":"2 hours","room":"LR1&2","location":"ROY MARSHALL BUILDING"},{"date":"12\/18\/2023","time":"4:00 pm","code":"MKTG3000","title":"Marketing Management","hours":"2 hours","room":"LR14","location":"SAGICOR BUILDING"},{"date":"12\/18\/2023","time":"4:00 pm","code":"PHIL1002","title":"Introduction to Ethics and Applied Ethics","hours":"2 hours","room":"LR3","location":"ROY MARSHALL BUILDING"},{"date":"12\/18\/2023","time":"4:00 pm","code":"PHYS1205","title":"Physics II: Rotation, Waves and Thermodynamics","hours":"2 hours","room":"LR7","location":"CLICO BUILDING"},{"date":"12\/18\/2023","time":"4:00 pm","code":"SPSC2012","title":"Introduction to Philosophy of Sport","hours":"2 hours","room":"LR8","location":"CLICO BUILDING"},{"date":"12\/18\/2023","time":"4:00 pm","code":"SWEN2003","title":"Computer Networking and Security","hours":"2 hours","room":"LR8","location":"CLICO BUILDING"},{"date":"12\/19\/2023","time":"9:00 am","code":"ACCT6012","title":"Principles of Taxation for Business","hours":"3 hours","room":"LR4","location":"ROY MARSHALL BUILDING"},{"date":"12\/19\/2023","time":"9:00 am","code":"ECON6036","title":"International Business Economics","hours":"3 hours","room":"LR1&2","location":"ROY MARSHALL BUILDING"},{"date":"12\/19\/2023","time":"9:00 am","code":"EDPS6310","title":"Typical and Atypical Human Development","hours":"3 hours","room":"LR3","location":"ROY MARSHALL BUILDING"},{"date":"12\/19\/2023","time":"9:00 am","code":"FINA2001","title":"Regulatory Environment of Banking and Finance","hours":"2 hours","room":"LR14","location":"SAGICOR BUILDING"},{"date":"12\/19\/2023","time":"9:00 am","code":"HRNM6107","title":"Human Resource Management","hours":"3 hours","room":"LR4","location":"ROY MARSHALL BUILDING"},{"date":"12\/19\/2023","time":"9:00 am","code":"INBA6017","title":"Economics for Int'l Business","hours":"3 hours","room":"LR1&2","location":"ROY MARSHALL BUILDING"},{"date":"12\/19\/2023","time":"9:00 am","code":"LAER6000","title":"Labour History","hours":"3 hours","room":"LR4","location":"ROY MARSHALL BUILDING"},{"date":"12\/19\/2023","time":"9:00 am","code":"LAW2110","title":"Law of Contract 2, MONA STUDENTS ONLY","hours":"2 hours","room":"LR14","location":"SAGICOR BUILDING"},{"date":"12\/19\/2023","time":"9:00 am","code":"LAW6525","title":"Advanced International Commercial Arbitration","hours":"3 hours","room":"LR1&2","location":"ROY MARSHALL BUILDING"},{"date":"12\/19\/2023","time":"9:00 am","code":"LGSC6002","title":"Transportation Administration","hours":"3 hours","room":"LR3","location":"ROY MARSHALL BUILDING"},{"date":"12\/19\/2023","time":"9:00 am","code":"SBCO6205","title":"Business in the Global Economy","hours":"3 hours","room":"LR1&2","location":"ROY MARSHALL BUILDING"},{"date":"12\/19\/2023","time":"9:00 am","code":"SOWK6020","title":"Professional Development and Ethical Issues in Human Services","hours":"3 hours","room":"LR4","location":"ROY MARSHALL BUILDING"},{"date":"12\/19\/2023","time":"9:00 am","code":"TOUR6150","title":"Human Resource Management","hours":"3 hours","room":"LR4","location":"ROY MARSHALL BUILDING"},{"date":"12\/19\/2023","time":"1:00 pm","code":"LAW2310","title":"Public International Law I (ABAN - MARTIN)","hours":"2 hours","room":"LR1&2","location":"ROY MARSHALL BUILDING"},{"date":"12\/19\/2023","time":"1:00 pm","code":"LAW2310","title":"Public International Law I (MASON - WRIGHT)","hours":"2 hours","room":"LR3","location":"ROY MARSHALL BUILDING"},{"date":"12\/19\/2023","time":"1:00 pm","code":"MGMT3078","title":"Policy Analysis","hours":"2 hours","room":"PLD","location":"PHYSICS LAB DOWN"},{"date":"12\/19\/2023","time":"1:00 pm","code":"MKTG3002","title":"Marketing Research","hours":"2 hours","room":"PLD","location":"PHYSICS LAB DOWN"},{"date":"12\/19\/2023","time":"1:00 pm","code":"PHYS3450","title":"Fluid Mechanics","hours":"2 hours","room":"LR4","location":"ROY MARSHALL BUILDING"},{"date":"12\/19\/2023","time":"1:00 pm","code":"SPSC2015","title":"Sport Nutrition","hours":"2 hours","room":"LR4","location":"ROY MARSHALL BUILDING"},{"date":"12\/19\/2023","time":"4:00 pm","code":"BIOC3260","title":"Principles of Biotechnology","hours":"2 hours","room":"LR6","location":"CLICO BUILDING"},{"date":"12\/19\/2023","time":"4:00 pm","code":"COMP1205","title":"Computing I (ADDIE - LAMBERT)","hours":"2 hours","room":"LR14","location":"SAGICOR BUILDING"},{"date":"12\/19\/2023","time":"4:00 pm","code":"COMP1205","title":"Computing I (LEON - YEARWOOD)","hours":"2 hours","room":"LR13","location":"SAGICOR BUILDING"},{"date":"12\/19\/2023","time":"4:00 pm","code":"COMP2210","title":"Mathematics for Computer Science II","hours":"2 hours","room":"LR11","location":"CLICO BUILDING"},{"date":"12\/19\/2023","time":"4:00 pm","code":"COMP3310","title":"Algorithms","hours":"2 hours","room":"PLD","location":"PHYSICS LAB DOWN"},{"date":"12\/19\/2023","time":"4:00 pm","code":"COMS1101","title":"Introduction to Human Communication","hours":"2 hours","room":"LR6","location":"CLICO BUILDING"},{"date":"12\/19\/2023","time":"4:00 pm","code":"COMS3000","title":"Writing for the Mass Media: News Writing","hours":"2 hours","room":"LR6","location":"CLICO BUILDING"},{"date":"12\/19\/2023","time":"4:00 pm","code":"ECON3034","title":"Natural Resource and Environmental Economics","hours":"2 hours","room":"LR10","location":"CLICO BUILDING"},{"date":"12\/19\/2023","time":"4:00 pm","code":"EDCU2101","title":"Introduction to Curriculum Theory, Planning and Practice","hours":"2 hours","room":"PLU","location":"PHYSICS LAB UP"},{"date":"12\/19\/2023","time":"4:00 pm","code":"ENSC2000","title":"Essentials of Oceanography","hours":"2 hours","room":"LR7","location":"CLICO BUILDING"},{"date":"12\/19\/2023","time":"4:00 pm","code":"GOVT2016","title":"Caribbean Political Philosophy","hours":"2 hours","room":"LR4","location":"ROY MARSHALL BUILDING"},{"date":"12\/19\/2023","time":"4:00 pm","code":"HESC3005","title":"Statistics for Public Health","hours":"2 hours","room":"LR1&2","location":"ROY MARSHALL BUILDING"},{"date":"12\/19\/2023","time":"4:00 pm","code":"LAW3400","title":"Insurance Law","hours":"2 hours","room":"MSR1&2","location":"MANAGEMENT STUDIES"},{"date":"12\/19\/2023","time":"4:00 pm","code":"LING1005","title":"Introduction to Language","hours":"2 hours","room":"LR10","location":"CLICO BUILDING"},{"date":"12\/19\/2023","time":"4:00 pm","code":"LING3103","title":"The Teaching of English","hours":"2 hours","room":"LR10","location":"CLICO BUILDING"},{"date":"12\/19\/2023","time":"4:00 pm","code":"MATH2305","title":"Differential Equations","hours":"2 hours","room":"LR7","location":"CLICO BUILDING"},{"date":"12\/19\/2023","time":"4:00 pm","code":"MDSC1201","title":"Cell Biology","hours":"2 hours","room":"LR3","location":"ROY MARSHALL BUILDING"},{"date":"12\/19\/2023","time":"4:00 pm","code":"MGMT2003","title":"Property and Facilities Management","hours":"2 hours","room":"LR10","location":"CLICO BUILDING"},{"date":"12\/19\/2023","time":"4:00 pm","code":"PHIL3130","title":"Business Ethics","hours":"2 hours","room":"PLU","location":"PHYSICS LAB UP"},{"date":"12\/19\/2023","time":"4:00 pm","code":"PSYC2026","title":"Gender and Psychology","hours":"2 hours","room":"LR4","location":"ROY MARSHALL BUILDING"},{"date":"12\/19\/2023","time":"4:00 pm","code":"SOCI3035","title":"Caribbean Social Problems","hours":"2 hours","room":"LR1&2","location":"ROY MARSHALL BUILDING"},{"date":"12\/19\/2023","time":"4:00 pm","code":"SWEN2010","title":"Beginner Chinese Language","hours":"2 hours","room":"TSR8","location":"SAGICOR BUILDING"},{"date":"12\/20\/2023","time":"9:00 am","code":"ACCT6018","title":"Legal & Ethical Environment for Wealth Management","hours":"3 hours","room":"LR3","location":"ROY MARSHALL BUILDING"},{"date":"12\/20\/2023","time":"9:00 am","code":"ECON1005","title":"Introduction to Statistics (AGARD - CAMPBELL)","hours":"2 hours","room":"LR6","location":"CLICO BUILDING"},{"date":"12\/20\/2023","time":"9:00 am","code":"ECON1005","title":"Introduction to Statistics (ARRINGTON - HAYNES)","hours":"2 hours","room":"LR7","location":"CLICO BUILDING"},{"date":"12\/20\/2023","time":"9:00 am","code":"ECON1005","title":"Introduction to Statistics (HENRY - PENISTON)","hours":"2 hours","room":"LR8","location":"CLICO BUILDING"},{"date":"12\/20\/2023","time":"9:00 am","code":"ECON1005","title":"Introduction to Statistics (PHILLIPS - WORRELL)","hours":"2 hours","room":"LR9","location":"CLICO BUILDING"},{"date":"12\/20\/2023","time":"9:00 am","code":"EDPS6303","title":"Cognition and Learning","hours":"3 hours","room":"LR3","location":"ROY MARSHALL BUILDING"},{"date":"12\/20\/2023","time":"9:00 am","code":"EGOV6030","title":"Legal and Ethical Issues in E-Governance","hours":"3 hours","room":"LR4","location":"ROY MARSHALL BUILDING"},{"date":"12\/20\/2023","time":"9:00 am","code":"FINA6006","title":"Ethical and Professional Standards","hours":"3 hours","room":"LR3","location":"ROY MARSHALL BUILDING"},{"date":"12\/20\/2023","time":"9:00 am","code":"GEMA6340","title":"Marketing Management","hours":"3 hours","room":"LR1&2","location":"ROY MARSHALL BUILDING"},{"date":"12\/20\/2023","time":"9:00 am","code":"IMGT6225","title":"Digital Business","hours":"3 hours","room":"LR3","location":"ROY MARSHALL BUILDING"},{"date":"12\/20\/2023","time":"9:00 am","code":"LAW6130","title":"Comparative Labour Law in a Corporate Environment","hours":"3 hours","room":"LR4","location":"ROY MARSHALL BUILDING"},{"date":"12\/20\/2023","time":"9:00 am","code":"LAW6203","title":"Patent Law (The Protection of Technology Assets)","hours":"3 hours","room":"LR4","location":"ROY MARSHALL BUILDING"},{"date":"12\/20\/2023","time":"9:00 am","code":"LGSC6001","title":"Strategic Marketing","hours":"3 hours","room":"LR1&2","location":"ROY MARSHALL BUILDING"},{"date":"12\/20\/2023","time":"9:00 am","code":"MKTG6000","title":"Marketing Management","hours":"3 hours","room":"LR1&2","location":"ROY MARSHALL BUILDING"},{"date":"12\/20\/2023","time":"9:00 am","code":"NURS6501","title":"Policy and Ethical Issues in Nursing","hours":"3 hours","room":"LR4","location":"ROY MARSHALL BUILDING"},{"date":"12\/20\/2023","time":"9:00 am","code":"PSYC2003","title":"Foundations of Neuropsychology","hours":"2 hours","room":"LR14","location":"SAGICOR BUILDING"},{"date":"12\/20\/2023","time":"9:00 am","code":"PSYC6110","title":"Applied Research Design and Statistics","hours":"3 hours","room":"LR1&2","location":"ROY MARSHALL BUILDING"},{"date":"12\/20\/2023","time":"9:00 am","code":"PTMT6031","title":"Managing Procurements and Contracts","hours":"3 hours","room":"LR3","location":"ROY MARSHALL BUILDING"},{"date":"12\/20\/2023","time":"9:00 am","code":"SBCO6212","title":"Marketing Management","hours":"3 hours","room":"LR1&2","location":"ROY MARSHALL BUILDING"},{"date":"12\/20\/2023","time":"9:00 am","code":"SPSC6006","title":"Advanced Nutrition","hours":"3 hours","room":"LR4","location":"ROY MARSHALL BUILDING"},{"date":"12\/20\/2023","time":"1:00 pm","code":"COMP1170","title":"Entrepreneurship for Computer Scientists (ADDIE - MARTIN)","hours":"2 hours","room":"LR1&2","location":"ROY MARSHALL BUILDING"},{"date":"12\/20\/2023","time":"1:00 pm","code":"COMP1170","title":"Entrepreneurship for Computer Scientists (MARTINDALE - YEARWOOD)","hours":"2 hours","room":"LR3","location":"ROY MARSHALL BUILDING"},{"date":"12\/20\/2023","time":"1:00 pm","code":"ECON2004","title":"Economic Analysis for Public Policy","hours":"2 hours","room":"MSR1&2","location":"MANAGEMENT STUDIES"},{"date":"12\/20\/2023","time":"1:00 pm","code":"HNDT3001","title":"Medical Nutrition Therapy I","hours":"2 hours","room":"S6","location":"SOCIAL SCIENCES"},{"date":"12\/20\/2023","time":"1:00 pm","code":"LAW3210","title":"Family Law I - Law Relating to Husband & Wife (ADAMS - MEADE)","hours":"2 hours","room":"PLD","location":"PHYSICS LAB DOWN"},{"date":"12\/20\/2023","time":"1:00 pm","code":"LAW3210","title":"Family Law I - Law Relating to Husband & Wife (MOONIE - YEARWOOD)","hours":"2 hours","room":"PLU","location":"PHYSICS LAB UP"},{"date":"12\/20\/2023","time":"1:00 pm","code":"LING2101","title":"Language Acquisition","hours":"2 hours","room":"MSR1&2","location":"MANAGEMENT STUDIES"},{"date":"12\/20\/2023","time":"1:00 pm","code":"LITS1001","title":"Introduction to Poetry","hours":"2 hours","room":"MSR1&2","location":"MANAGEMENT STUDIES"},{"date":"12\/20\/2023","time":"1:00 pm","code":"MDSC1105","title":"The Locomotor System","hours":"2 hours","room":"LR4","location":"ROY MARSHALL BUILDING"},{"date":"12\/20\/2023","time":"1:00 pm","code":"MGMT2027","title":"Management in Government I","hours":"2 hours","room":"S6","location":"SOCIAL SCIENCES"},{"date":"12\/20\/2023","time":"1:00 pm","code":"MGMT3231","title":"International Entrepreneurship","hours":"2 hours","room":"S6","location":"SOCIAL SCIENCES"},{"date":"12\/20\/2023","time":"4:00 pm","code":"ACCT3041","title":"Advanced Financial Accounting","hours":"2 hours","room":"LR1&2","location":"ROY MARSHALL BUILDING"},{"date":"12\/20\/2023","time":"4:00 pm","code":"BIOC2365","title":"Primary Metabolism","hours":"2 hours","room":"LR14","location":"SAGICOR BUILDING"},{"date":"12\/20\/2023","time":"4:00 pm","code":"CHEM3630","title":"Methods in Instrumental Analysis","hours":"2 hours","room":"LR6","location":"CLICO BUILDING"},{"date":"12\/20\/2023","time":"4:00 pm","code":"COMP2245","title":"Web Development Concepts, Tools and Practices","hours":"2 hours","room":"LR13","location":"SAGICOR BUILDING"},{"date":"12\/20\/2023","time":"4:00 pm","code":"COMP3440","title":"E-Commerce","hours":"2 hours","room":"LR6","location":"CLICO BUILDING"},{"date":"12\/20\/2023","time":"4:00 pm","code":"EDTE3404","title":"Issues in Teacher Education","hours":"2 hours","room":"LR4","location":"ROY MARSHALL BUILDING"},{"date":"12\/20\/2023","time":"4:00 pm","code":"ELET3220","title":"Control Systems","hours":"2 hours","room":"LR7","location":"CLICO BUILDING"},{"date":"12\/20\/2023","time":"4:00 pm","code":"GEND1103","title":"Basic Theoretical Concepts and Sources of Knowledge","hours":"2 hours","room":"LR8","location":"CLICO BUILDING"},{"date":"12\/20\/2023","time":"4:00 pm","code":"GOVT3075","title":"International Trade and Finance in Global Pol. Economics","hours":"2 hours","room":"PLU","location":"PHYSICS LAB UP"},{"date":"12\/20\/2023","time":"4:00 pm","code":"HESC2002","title":"Human Development and Behaviour","hours":"2 hours","room":"PLD","location":"PHYSICS LAB DOWN"},{"date":"12\/20\/2023","time":"4:00 pm","code":"HIST1601","title":"The Atlantic World 1400 - 1600","hours":"2 hours","room":"LR4","location":"ROY MARSHALL BUILDING"},{"date":"12\/20\/2023","time":"4:00 pm","code":"HIST3103","title":"Brazil in the 20th Century","hours":"2 hours","room":"PLD","location":"PHYSICS LAB DOWN"},{"date":"12\/20\/2023","time":"4:00 pm","code":"HNDT1001","title":"General Chemistry for Nutrition","hours":"2 hours","room":"LR7","location":"CLICO BUILDING"},{"date":"12\/20\/2023","time":"4:00 pm","code":"LING1001","title":"Introduction to Phonetics and Phonology","hours":"2 hours","room":"PLD","location":"PHYSICS LAB DOWN"},{"date":"12\/20\/2023","time":"4:00 pm","code":"MDSC2104","title":"The Digestive System","hours":"2 hours","room":"LR7","location":"CLICO BUILDING"},{"date":"12\/20\/2023","time":"4:00 pm","code":"MKTG3010","title":"Integrated Marketing Communications","hours":"2 hours","room":"LR3","location":"ROY MARSHALL BUILDING"},{"date":"12\/20\/2023","time":"4:00 pm","code":"PHYS2400","title":"Mathematical Methods in Physics I","hours":"2 hours","room":"LR7","location":"CLICO BUILDING"},{"date":"12\/20\/2023","time":"4:00 pm","code":"PHYS3420","title":"Electromagnetic Theory I","hours":"2 hours","room":"PLD","location":"PHYSICS LAB DOWN"},{"date":"12\/20\/2023","time":"4:00 pm","code":"PSYC2012","title":"Developmental Psychology","hours":"2 hours","room":"LR11","location":"CLICO BUILDING"},{"date":"12\/20\/2023","time":"4:00 pm","code":"PSYC3028","title":"Psychological Counselling Skills","hours":"2 hours","room":"LR4","location":"ROY MARSHALL BUILDING"},{"date":"12\/20\/2023","time":"4:00 pm","code":"SPSC2000","title":"Functional Anatomy","hours":"2 hours","room":"LR8","location":"CLICO BUILDING"},{"date":"12\/20\/2023","time":"4:00 pm","code":"SPSC3003","title":"Applied Sport Psychology","hours":"2 hours","room":"LR8","location":"CLICO BUILDING"},{"date":"12\/20\/2023","time":"4:00 pm","code":"SWEN1009","title":"An Introduction to Computing II","hours":"2 hours","room":"LR7","location":"CLICO BUILDING"},{"date":"12\/20\/2023","time":"4:00 pm","code":"SWEN2001","title":"An Introduction to Software Engineering","hours":"2 hours","room":"LR7","location":"CLICO BUILDING"},{"date":"12\/20\/2023","time":"4:00 pm","code":"TOUR2000","title":"International Tourism","hours":"2 hours","room":"PLU","location":"PHYSICS LAB DOWN"},{"date":"12\/21\/2023","time":"9:00 am","code":"ACCT6011","title":"Corporate Finance","hours":"3 hours","room":"LR3","location":"ROY MARSHALL BUILDING"},{"date":"12\/21\/2023","time":"9:00 am","code":"BIOL0051","title":"Biology I","hours":"3 hours","room":"LR4","location":"ROY MARSHALL BUILDING"},{"date":"12\/21\/2023","time":"9:00 am","code":"COSY6000","title":"Foundations\/Principles of Counselling Psychology","hours":"3 hours","room":"LR1&2","location":"ROY MARSHALL BUILDING"},{"date":"12\/21\/2023","time":"9:00 am","code":"EDEP6000","title":"Advanced Sociology of Education","hours":"3 hours","room":"LR3","location":"ROY MARSHALL BUILDING"},{"date":"12\/21\/2023","time":"9:00 am","code":"EGOV6070","title":"Strategic Aspects of Information Technology","hours":"3 hours","room":"LR1&2","location":"ROY MARSHALL BUILDING"},{"date":"12\/21\/2023","time":"9:00 am","code":"GEMA0107","title":"Production and Operations Management","hours":"3 hours","room":"LR1&2","location":"ROY MARSHALL BUILDING"},{"date":"12\/21\/2023","time":"9:00 am","code":"GEMA6030","title":"Managerial Finance","hours":"3 hours","room":"LR3","location":"ROY MARSHALL BUILDING"},{"date":"12\/21\/2023","time":"9:00 am","code":"IMGT6220","title":"Foreign Market Entry Strategy","hours":"2 hours","room":"LR11","location":"CLICO BUILDING"},{"date":"12\/21\/2023","time":"9:00 am","code":"LAER6007","title":"Occupational Safety, Health and the Environment","hours":"3 hours","room":"LR1&2","location":"ROY MARSHALL BUILDING"},{"date":"12\/21\/2023","time":"9:00 am","code":"LAW6205","title":"International Trade and Intellectual Property","hours":"3 hours","room":"LR4","location":"ROY MARSHALL BUILDING"},{"date":"12\/21\/2023","time":"9:00 am","code":"LAW6550","title":"Construction Dispute Resolution","hours":"3 hours","room":"LR4","location":"ROY MARSHALL BUILDING"},{"date":"12\/21\/2023","time":"9:00 am","code":"LGSC6000","title":"Logistics and Supply Chain Management","hours":"3 hours","room":"S6","location":"SOCIAL SCIENCES"},{"date":"12\/21\/2023","time":"9:00 am","code":"MGMT2013","title":"Introduction to International Business","hours":"2 hours","room":"LR11","location":"CLICO BUILDING"},{"date":"12\/21\/2023","time":"9:00 am","code":"SBCO6213","title":"Corporate Finance","hours":"3 hours","room":"S6","location":"SOCIAL SCIENCES"},{"date":"12\/21\/2023","time":"9:00 am","code":"SOWK6030","title":"Social Welfare Policy and Administration","hours":"3 hours","room":"LR3","location":"ROY MARSHALL BUILDING"},{"date":"12\/21\/2023","time":"1:00 pm","code":"ELET2240","title":"Sensor and Actuation Devices","hours":"2 hours","room":"PLD","location":"PHYSICS LAB DOWN"},{"date":"12\/21\/2023","time":"1:00 pm","code":"FINA1001","title":"Elements of Banking and Finance (ABSALOM - MUHAMMAD)","hours":"2 hours","room":"LR1&2","location":"ROY MARSHALL BUILDING"},{"date":"12\/21\/2023","time":"1:00 pm","code":"FINA1001","title":"Elements of Banking and Finance (MURRAY - YEARWOOD)","hours":"2 hours","room":"LR3","location":"ROY MARSHALL BUILDING"},{"date":"12\/21\/2023","time":"1:00 pm","code":"GOVT2014","title":"Western Political Thougt","hours":"2 hours","room":"PLU","location":"PHYSICS LAB UP"},{"date":"12\/21\/2023","time":"1:00 pm","code":"HESC3011","title":"Management of Health Services","hours":"2 hours","room":"LR4","location":"ROY MARSHALL BUILDING"},{"date":"12\/21\/2023","time":"1:00 pm","code":"LITS3501","title":"Advanced Seminar in West Indian Literature","hours":"2 hours","room":"PLU","location":"PHYSICS LAB UP"},{"date":"12\/21\/2023","time":"1:00 pm","code":"MATH2330","title":"Probability Theory 1","hours":"2 hours","room":"LR3","location":"ROY MARSHALL BUILDING"},{"date":"12\/21\/2023","time":"1:00 pm","code":"MDSC2201","title":"The Endocrine System and Skin","hours":"2 hours","room":"LR4","location":"ROY MARSHALL BUILDING"},{"date":"12\/21\/2023","time":"1:00 pm","code":"MGMT3220","title":"Project Planning","hours":"2 hours","room":"PLU","location":"PHYSICS LAB UP"},{"date":"12\/21\/2023","time":"1:00 pm","code":"PSYC3024","title":"Applied Psychology Research Methods","hours":"2 hours","room":"PLD","location":"PHYSICS LAB DOWN"},{"date":"12\/21\/2023","time":"1:00 pm","code":"SOCI3017","title":"Criminal Justice","hours":"2 hours","room":"S6","location":"SOCIAL SCIENCES"}]